name,site,lat,lng,areaShopTell,areaShopCity,areaShopCityCode,areaShopProvince,areaShopProvinceCode,shopServiceCategory,storeName
芯图大厦展示中心杭州,物联网街451号芯图大厦,30.209219,120.223901,18100186684,杭州市,330100,浙江省,330000,"2,1,3",体验中心
萧山奥体印象城店杭州,盈丰街道飞虹路1408号奥体印象城负1楼B1-10号,30.223058,120.25318,18106563870,杭州市,330100,浙江省,330000,"1,2",体验中心
萧山宝龙店杭州,建设一路与金鸡路交叉口萧山宝龙广场L1-132~135,30.195704,120.25325,18100185423,杭州市,330100,浙江省,330000,"1,2",体验中心
钱江店杭州,高德置地中心3幢101室一层102商铺,30.243276,120.20922,19560155083,杭州市,330100,浙江省,330000,"1,2",体验中心
金一路店杭州,金一路111号,30.208954,120.259007,,杭州市,330100,浙江省,330000,"4,5",服务中心
丁桥天街店杭州,丁桥天街商场A-1F-43号,30.350712,120.215812,17799866208,杭州市,330100,浙江省,330000,"1,2",体验中心
永旺梦乐城店杭州,良渚街道古墩路 1888 号，永旺梦乐城商场内一楼零跑汽车,30.360507895783105,120.05920583045813,13505816433,杭州市,330100,浙江省,330000,"1,2",体验中心
余杭江南时代店杭州,余杭街道江南时代购物中心1F-017、017-1,30.26,119.95,0571-88520112,杭州市,330100,浙江省,330000,"2,1",体验中心
西溪银泰店杭州,杭州市西湖区双龙街西溪银泰城一楼01035铺号零跑汽车,30.29,120.08,18100170192,杭州市,330100,浙江省,330000,"2,1",体验中心
西溪印象城店杭州,西溪印象城二期一层,30.246752,120.04765,13588302103,杭州市,330100,浙江省,330000,"1,2",体验中心
远洋乐堤港店杭州,大关路58号远洋乐堤港A162-1,30.305481,120.143221,15858207378,杭州市,330100,浙江省,330000,"1,2",体验中心
金地广场店杭州,良渚街道古墩路1333号杭州金地广场F1楼F135号商铺,30.339154,120.083034,18757590676,杭州市,330100,浙江省,330000,"1,2",体验中心
富阳银泰店杭州,春秋北路 271 号玉长城商业广场步行街编号为 [W1011 ]的铺位,30.060489,119.941349,18329182100,杭州市,330100,浙江省,330000,"1,2",体验中心
新天地购物中心店杭州,长浜路718号新天地购物中心一楼1039A,30.322552854721387,120.18052386983871,0571-85107232,杭州市,330100,浙江省,330000,"1,2",体验中心
上亿广场店杭州,浙江省杭州市临平区崇贤街道亿荟城7号楼1层1029C,30.38,120.16,15858151800,杭州市,330100,浙江省,330000,"1,2",体验中心
临平银泰店杭州,银泰城1楼,30.405254,120.303085,18069795383,杭州市,330100,浙江省,330000,"1,2",体验中心
临安宝龙广场店杭州,农林大路899号宝龙广场18-20号楼第L1层M1-L1-016/017商铺,30.249965,119.725291,13634198604,杭州市,330100,浙江省,330000,"1,2",体验中心
萧山银泰店杭州,新塘街道通惠南路667号银泰百货商业综合体F1层101M-1号,30.144545,120.286619,18906711251,杭州市,330100,浙江省,330000,"1,2",体验中心
七堡花园城店杭州,九和路583号七堡花园城1层第L114商铺,30.300658,120.243567,15858221408,杭州市,330100,浙江省,330000,"1,2",体验中心
滨江宝龙城店杭州,滨盛路3867号的宝龙广场宝龙城一楼M1-L1-034商铺,30.187941,120.167761,17799869702,杭州市,330100,浙江省,330000,"1,2",体验中心
桐庐银泰店杭州,城南街道环城南路555号,29.796356061641333,119.71377470571949,18957529998,杭州市,330100,浙江省,330000,"1,2",体验中心
黄龙万科店杭州,学院路77号黄龙国际中心AB楼110-1，1101-2室,30.275405,120.127984,15068192270,杭州市,330100,浙江省,330000,"1,2",体验中心
余杭宝龙广场店杭州,仓前街道余杭塘路2853号，L1-026-2,30.28,119.99,15068735153,杭州市,330100,浙江省,330000,"1,2",体验中心
之江银泰店杭州,珊瑚沙路49号之江银泰2号门旁,30.167186,120.101938,15868100968,杭州市,330100,浙江省,330000,"1,2",体验中心
大江东宝龙广场店杭州,钱塘新区江东大道2333号宝龙广场,30.303314,120.494644,15906696205,杭州市,330100,浙江省,330000,"1,2",体验中心
复兴南街店杭州,复兴南街311号,30.206532,120.161464,,杭州市,330100,浙江省,330000,"4,5",服务中心
吉利路店杭州,蜀山街道吉利路8号,30.110559,120.256047,,杭州市,330100,浙江省,330000,"4,5",服务中心
石祥路店杭州,石祥路59-3号,30.328308,120.188717,,杭州市,330100,浙江省,330000,"4,5",服务中心
西溪路店杭州,西溪路938号,30.25072,120.07313,,杭州市,330100,浙江省,330000,"4,5",服务中心
金昌路店杭州,良渚街道金昌路2008号,30.346946,120.125717,,杭州市,330100,浙江省,330000,"4,5",服务中心
藕花洲大街店杭州,星桥街道藕花洲大街西段153号 ,30.402225,120.272933,,杭州市,330100,浙江省,330000,"5,4",服务中心
金桥北路店杭州,银湖街道金桥北路961号,30.089993,119.930699,,杭州市,330100,浙江省,330000,"5,4",服务中心
龙潭汽车城店成都,成致路1号附12号,30.682597,104.165652,028-85858780,成都市,510100,四川省,510000,"1,2,3",零跑中心
武侯吾悦广场店成都,武侯大道顺江段77号1栋1层38号1001,30.625972,103.98931,028-86050552,成都市,510100,四川省,510000,"1,2",体验中心
凯德天府店成都,武侯区天仁路388号1层07号,30.603746,104.069062,028-85181896,成都市,510100,四川省,510000,"1,2",体验中心
世茂广场店成都,金枫路833号L1层32号,30.582137,104.189569,028-83283620,成都市,510100,四川省,510000,"1,2",体验中心
海滨城店成都,蛟龙港双流园区海滨城一层A170-6号,30.603103,103.909619,13558660114,成都市,510100,四川省,510000,"1,2",体验中心
王府井店成都,四川省成都市成华区二环路北四段33号附121号J5-1F-P001A,30.688511,104.098931,028-85690808,成都市,510100,四川省,510000,"1,2",体验中心
龙湖北城天街店成都,五块石路1号27栋北城天街A馆-1F-024B,30.709961,104.065541,18628187570,成都市,510100,四川省,510000,"1,2",体验中心
保利广场店成都,高新区益州大道中段699号1层1022号,30.554452,104.060845,028-86617388,成都市,510100,四川省,510000,"1,2",零跑中心
文华广场店成都,汇泉南路499号2113号文华广场—零跑汽车,30.636276173346896,104.10755613415115,028-85670889,成都市,510100,四川省,510000,"1,2",体验中心
成都零跑中心双流店成都,成都双流西航港大道中二段222号,30.598049,103.956208,028-65678888,成都市,510100,四川省,510000,"1,4,5,2",零跑中心
天府环宇坊店成都,成都市双流区祥鹤三街398号,30.477623,104.036844,18200193332,成都市,510100,四川省,510000,"1,2",体验中心
华熙528店成都,四川省成都市锦江区雨树巷27号附1126号,30.593342,104.147602,19940853816,成都市,510100,四川省,510000,"1,2",体验中心
远大购物中心店成都,高新区远大购物中心A馆 L1 层A-L105商铺,30.530621608469648,104.07108306884767,028-85178111,成都市,510100,四川省,510000,"1,2",体验中心
摩里中心店成都,二环路蓝润摩里中心1F01,30.667845,104.022419,18180451991,成都市,510100,四川省,510000,"1,2",体验中心
龙湖时代天街店成都,成都市龙湖时代天街1层06号,30.751623,103.922363,028-87880200,成都市,510100,四川省,510000,"1,2",体验中心
龙潭汽车城店成都,成致路1号附12号,30.68385,104.165233,,成都市,510100,四川省,510000,"4,5",服务中心
锦江大道店成都,四川省成都市锦江区锦江大道石胜路四公里处,30.59,104.12,,成都市,510100,四川省,510000,"4,5",服务中心
机场路汽车城店成都,火车南站西路1809号,30.593417,104.035019,,成都市,510100,四川省,510000,"4,5",服务中心
警校路店成都,怡心街道警校路一段580号,30.514013,104.031887,,成都市,510100,四川省,510000,"4,5",服务中心
蜀西路店成都,蜀西路83号（捷顺汽车园内）,30.713489,103.990689,,成都市,510100,四川省,510000,"4,5",服务中心
中北永旺店天津,中北镇中北工业园阜盛道1号永旺梦乐城购物中心1层126-2,39.142644,117.090498,022-2798 2823,天津市,120100,天津,120000,"1,2",体验中心
陆家嘴中心店天津,大丰路陆家嘴中心1F层L119-2号,39.1475118025636,117.17213729624284,17695955719,天津市,120100,天津,120000,"1,2",体验中心
空港汽车园店天津,天津市东丽区空港经济区汽车园中路22号,39.16,117.37,022-24897929,天津市,120100,天津,120000,"1,2",体验中心
津南吾悦广场店天津,咸水沽镇二八公路与同砚路交口新城吾悦广场1033-2,38.978822,117.375566,13389085730,天津市,120100,天津,120000,"1,2",体验中心
滨海吾悦广场店天津,塘沽海洋科技园云山道819号滨海吾悦广场一层1008号,39.065959,117.622141,022-59810518,天津市,120100,天津,120000,"1,2",体验中心
河东万达店天津,津滨大道53号万达广场1F160A,39.12452,117.255584,022-59661188,天津市,120100,天津,120000,"1,2",体验中心
新业广场店天津,黑牛城道125号新业广场一层A121,39.077661,117.213983,022-59956100,天津市,120100,天津,120000,"1,2",体验中心
东丽新业广场店天津,"开发区二经路1号A栋一层L1-07,L1-08",39.079113,117.355255,022-58228787,天津市,120100,天津,120000,"1,2",体验中心
北辰店天津,宜兴埠镇普济河东道1号院内（天士力对面）,39.202763,117.186349,022-86345377,天津市,120100,天津,120000,"1,2",体验中心
长江道店天津,销售地址：天津市南开区长江道33号增10号；售后地址：天津市河西区解放南路环渤海汽车城3期13号13512059666,39.130184,117.152099,18526266655,天津市,120100,天津,120000,"1,3,2,4,5",零跑中心
大寺汽车园店天津,大寺高新技术产业园储源道18号,38.99368,117.272643,,天津市,120100,天津,120000,"4,5",服务中心
空港汽车园店天津,天津市东丽区航天路6号,39.14,117.40,,天津市,120100,天津,120000,"3,4,5",服务中心
北方汽贸园店天津,铁东北路北方汽贸园A区1排5号,39.20,117.19,,天津市,120100,天津,120000,"4,5",服务中心
天宁吾悦广场店常州,常州市天宁区天宁吾悦广场10幢一层1070,31.764664,120.009543,0519-81808880,常州市,320400,江苏省,320000,"1,2",体验中心
武进万达店常州,江苏省常州市花园路301号万达广场1层1033A号商铺零跑汽车,31.733215,119.948147,0519-85928110,常州市,320400,江苏省,320000,"1,2",体验中心
江南环球港店常州,通江中路598号常州江南环球港四楼L4093-L4094 ,31.842581,119.978184,0519-83127808,常州市,320400,江苏省,320000,"1,2",体验中心
溧阳圣大万达店 常州,南大街199号-1007A,31.401376,119.494667,18915861836,常州市,320400,江苏省,320000,"1,2",体验中心
溧阳平陵东路店常州,平陵东路9号,31.419587,119.498676,,常州市,320400,江苏省,320000,"4,5",服务中心
火炬南路店常州,常州市武进汽车城D区1-2号,31.69,119.97,null,常州市,320400,江苏省,320000,"4,5",服务中心
南环二路店常州,南环二路229号,31.73,119.62,,常州市,320400,江苏省,320000,"4,5",服务中心
亚运大道店广州,广东省广州市番禺区亚运大道5号,22.936061,113.390567,,广州市,440100,广东省,440000,"3,4,5",服务中心
白云安华汇店广州,白云大道北880号安华汇L1A046商铺,23.216644,113.296429,13434203331,广州市,440100,广东省,440000,"1,2",体验中心
雄峰城店广州,雄峰商业城B1栋1层1028号商铺,22.970938,113.304618,15626116568,广州市,440100,广东省,440000,"1,2",体验中心
黄埔南岗万达店广州,康富路16号102房南岗万达广场一为1056号商铺,23.09893,113.550561,16676308945,广州市,440100,广东省,440000,"1,2",体验中心
花都来又来店广州,龙珠路39号来又来广场首层1079号铺,23.40,113.23,13316255188,广州市,440100,广东省,440000,"1,2",体验中心
科学城店广州,广州市黄埔区南翔一路50号,23.156056,113.44768,18620887049,广州市,440100,广东省,440000,"2,1,3,4,5",零跑中心
嘉禾金柏天地店广州,鹤龙二路85号123铺,23.239844,113.281315,17302075760,广州市,440100,广东省,440000,"1,2",体验中心
美轮新源店广州,广州大道南新源街29号,23.076824,113.31252,020-32612380,广州市,440100,广东省,440000,"1,3,2,4,5",零跑中心
花都融创茂店广州,广州花都区凤凰北路63号101房（部位：W1007-W1008）,23.426637473400646,113.23456585407259,13678956518,广州市,440100,广东省,440000,"1,2",体验中心
番禺天河城店广州,番禺天河城B2006,23.00873177003362,113.34156875240413,16620055347,广州市,440100,广东省,440000,"1,2",体验中心
天河花城汇店广州,黄埔大道西74号北区H120铺北区H119铺北区H121铺,23.121249,113.32461,17512860756,广州市,440100,广东省,440000,"1,2",体验中心
百信广场店广州,广州市白云区棠乐路1，3，5，7号1层XL1006号,23.194632,113.260438,17605509391,广州市,440100,广东省,440000,"1,2",体验中心
祈福缤纷世界店广州,广州市番禺区钟村街祈福名家三街13号,22.97,113.33,13725419405,广州市,440100,广东省,440000,"1,2",体验中心
越秀时光里店广州,环市东路332号101房北塔一层自编BF1012号商铺,23.134756,113.310322,13662530886,广州市,440100,广东省,440000,"1,2",体验中心
黄埔至泰广场店广州,开创大道至泰广场A4栋B1019铺,23.174155853737677,113.48317065128356,13823897870,广州市,440100,广东省,440000,"1,2",体验中心
花都雅乐城店广州,花都永发路14号之六十三自编1033a-1033b号商铺,23.42274269384984,113.18899843368585,18011763154,广州市,440100,广东省,440000,"1,2",体验中心
悦汇城店广州,广州市荔湾区西湾路150号101房自编号1D116、1D117铺面,23.149821,113.243033,020-88501646,广州市,440100,广东省,440000,"1,2",体验中心
番禺基盛万科店广州,市桥兴泰路268号115/116号,22.932277,113.385506,13533296802,广州市,440100,广东省,440000,"1,2",体验中心
挂绿广场店广州,荔城街挂绿路2号挂绿广场增城市挂绿广场商贸首层C区26号商铺,23.290732,113.833248,19396883268,广州市,440100,广东省,440000,"1,2",体验中心
新塘万达店广州,广州市增城区新塘镇顺欣居委会万达广场市内步行街1F1031号铺,23.152185,113.61744,18148629258,广州市,440100,广东省,440000,"1,2",体验中心
广从路店广州,广从七路32号,23.366423,113.390241,,广州市,440100,广东省,440000,"4,5",服务中心
花都大道北店广州,广东省广州市花都区花山镇洛场村第四经济社花都大道北金茂加油站侧,23.44,113.29,,广州市,440100,广东省,440000,"4,5",服务中心
广深大道店广州,广州市增城区新塘镇南安村107国道南安村路段新路元（土名）自编1号,23.121178,113.581094,,广州市,440100,广东省,440000,"4,5",服务中心
同和路店广州,同和路366号,23.21,113.33,,广州市,440100,广东省,440000,"4,5",服务中心
黄埔大道店广州,黄埔大道东903号,23.100236,113.426796,,广州市,440100,广东省,440000,"4,5",服务中心
机场路店广州,机场路888－1086号广东汽车市场内,23.187223,113.260915,,广州市,440100,广东省,440000,"4,5",服务中心
东山汽车园店南京,南京市江宁区临麒路1号,31.97858,118.874745,025-52795678,南京市,320100,江苏省,320000,"1,3,4,5,2",零跑中心
雨花吾悦广场店南京,古雄大道211号新城吾悦广场1层1031号,31.912221,118.653443,025-52252515,南京市,320100,江苏省,320000,"1,2",体验中心
江北弘阳广场店南京,江北弘阳广场C2-108B,32.137333,118.726544,025-52785197,南京市,320100,江苏省,320000,"1,2",体验中心
河西吾悦店南京,建邺区汉中门大街299号,32.067073,118.776628,025-52723777,南京市,320100,江苏省,320000,"1,2",体验中心
燕子矶花园城店南京,迈皋桥街道燕城大道1号燕子矶花园城1F108铺位,32.122965,118.833766,025-85200190,南京市,320100,江苏省,320000,"1,2",体验中心
浦珠北路店南京,浦珠北路133号,32.112303,118.705651,,南京市,320100,江苏省,320000,"4,5",服务中心
龙港新鸿世纪广场店温州,世纪大道新鸿世纪广场1F-026/1号商铺,27.554911,120.530755,18058359090,温州市,330300,浙江省,330000,"1,2",体验中心
永嘉三江立体城店温州,三江街道长岙村东路 53 号三江立体城购物中心,28.037288,120.693578,13867717867,温州市,330300,浙江省,330000,"1,2",体验中心
乐清南虹店温州,城南街道伯乐东路666号南虹广场购物中心1026 JD1008店铺,28.110251,120.982739,18989765333,温州市,330300,浙江省,330000,"1,2",体验中心
瑞安吾悦广场店温州,吾悦广场2号门,27.782149,120.66322,13626586605,温州市,330300,浙江省,330000,"1,2",体验中心
温州体验中心5050店温州,温州市鹿城区鞋都大道235号5050购物中心1层1013-1014,28.017461,120.61887,0577-88250155,温州市,330300,浙江省,330000,"1,2",体验中心
名城广场店温州,温州市公园路163号，五马红，名城广场,28.01,120.66,15858101380,温州市,330300,浙江省,330000,"1,2",体验中心
苍南银泰店温州,浙江省温州市苍南县灵溪镇玉苍路1088号银泰城,27.509923,120.427575,18858745051,温州市,330300,浙江省,330000,"1,2",体验中心
大西洋银泰店温州,娄桥街道瓯海大道1299号一楼1068店铺,27.962599,120.603941,18312917759,温州市,330300,浙江省,330000,"1,2",体验中心
龙湾万达店温州,永中街道万达商业广场4号楼室内步行街1层1057BB号,27.920428,120.812121,18106702289,温州市,330300,浙江省,330000,"1,2",体验中心
平阳银泰店温州,鳌江镇车站大道1188号银泰城A幢101室,27.601189,120.566663,15888777372,温州市,330300,浙江省,330000,"1,2",体验中心
乐清宁康西路店温州,宁康西路360号,28.10578,120.970029,,温州市,330300,浙江省,330000,"4,5",服务中心
温州大道店温州,温州大道2881号,27.981247,120.659545,,温州市,330300,浙江省,330000,"4,5",服务中心
智车港车园店温州,衢江路208号智车港园,27.98,120.74,,温州市,330300,浙江省,330000,"4,5",服务中心
永强大道店温州,永中街道永强大道沧河锦园1幢102室,27.92,120.83,,温州市,330300,浙江省,330000,"4,5",服务中心
瑞安国道店温州,莘塍街道董五村104国道边,27.783343,120.692979,,温州市,330300,浙江省,330000,"4,5",服务中心
西一路店温州,西一路617号,27.56942,120.542538,,温州市,330300,浙江省,330000,"4,5",服务中心
福城天虹购物中心店深圳,龙华区观澜大道117号铺福城天虹购物中心商场B1层B161铺,22.699991,114.040625,0755-28018229,深圳市,440300,广东省,440000,"1,2",体验中心
坪山益田假日店深圳,坪山益田假日世界L1-44-1-2,22.692842,114.338675,13728650023,深圳市,440300,广东省,440000,"1,2",体验中心
光明车城店深圳,深圳市光明区马田街道石围社区石围油麻岗工业区12号5栋,22.740108,113.892692,19075363903,深圳市,440300,广东省,440000,"1,2,3,4,5",零跑中心
光明万达店深圳,光明区凤凰街道东坑社区光明乐府万达广场1F层1020,22.748226,113.932495,13728650023,深圳市,440300,广东省,440000,"1,2",体验中心
南山欢乐颂购物中心店深圳,南头街道田厦社区南新路东、南头街南金福瑞购物广场欢乐颂119  L1层L140号铺,22.54,113.92,0755-21058224,深圳市,440300,广东省,440000,"1,2",体验中心
佳兆业新都汇店深圳,深圳市龙岗区布吉街道木棉湾社区龙岗大道佳兆业新都汇嘉园2栋106-107A,22.606424,114.130671,0755-84509632,深圳市,440300,广东省,440000,"1,2",体验中心
宝安天虹购物中心店深圳,西乡大道与新湖路交汇处汇一城天虹宝安中心区天虹购物中心商场L1层1035B,22.575076,113.864013,0755-23590897,深圳市,440300,广东省,440000,"1,2",体验中心
沙河天虹商场店深圳,白石路与深湾二路交会处沙河天虹商场L1层1118号铺,22.531081038584745,113.96866381301298,18316855253,深圳市,440300,广东省,440000,"1,2",体验中心
罗湖IBC店深圳,东晓街道独树社区布心路3008号水贝珠宝总部大厦一楼L1-18,22.574344630634098,114.12505977109599,18820050951,深圳市,440300,广东省,440000,"1,2",体验中心
龙华星河店深圳,龙华区民治街道民泰社区星河盛世A1-A6栋一层LIS-063,22.602695,114.046692,0755-23733009,深圳市,440300,广东省,440000,"1,2",体验中心
福田世纪汇店深圳,华强北街道华航社区深南大道3018号世纪汇广场、都会轩106,22.541765,114.083625,0755-82226490,深圳市,440300,广东省,440000,"1,2",体验中心
马成时代广场店深圳,深圳市福田区福保街道石厦社区石厦北二街马成时代广场1层115铺,22.521022,114.053092,19129309456,深圳市,440300,广东省,440000,"1,2",体验中心
龙岗万达店深圳,深圳市龙岗区平湖街道禾花社区华南大道一号万达广场,22.673839,114.131104,13923459254,深圳市,440300,广东省,440000,"1,2",体验中心
佐阾虹湾店深圳,深圳市福田区梅林街道下梅社区虹湾花园1栋一层第L1025号商铺,22.56,114.04,18028708621,深圳市,440300,广东省,440000,"1,2",体验中心
坂田天虹店深圳,坂田街道信义嘉御山1-4楼坂田天虹一楼L1132铺,22.636782,114.058452,13620921213,深圳市,440300,广东省,440000,"1,2",体验中心
红山6979店深圳,深圳市龙华区民治街道大岭社区红山六九七九一期5栋120,22.622108,114.025282,0755-21058224,深圳市,440300,广东省,440000,"1,2",体验中心
龙岗星河iCO店深圳,深圳市龙岗区龙城街道紫薇社区清林中路31号金基吉祥广场一层L1C-13号铺,22.718865,114.23738,19925223168,深圳市,440300,广东省,440000,"1,2",体验中心
福永同泰店深圳,深圳市宝安区福海街道桥头社区同泰总部产业园厂房2栋同泰时代中心2栋L1层21/22,22.678578,113.804322,0755-23309252,深圳市,440300,广东省,440000,"1,2",体验中心
沙井卓悦时光店深圳,沙井街道环镇路沙井卓悦时光L1-06+08,22.737058658951117,113.81241567872345,15367302385,深圳市,440300,广东省,440000,"1,2",体验中心
东海缤纷天地店深圳,深南大道7888号东海缤纷天地一层1027号铺,22.536245,114.019927,13686499919,深圳市,440300,广东省,440000,"1,2",体验中心
百世车城店深圳,宝龙街道南约社区植物园路144号翠华达南约工业厂区1号厂房A单元101,22.70574,114.27043,,深圳市,440300,广东省,440000,"4,5",服务中心
盛宝路店深圳,南湾街道康乐社区日塑工业城院内A栋,22.630481,114.137927,,深圳市,440300,广东省,440000,"4,5",服务中心
油松路店深圳,龙华区东环一路梦丽园6栋1层B区,22.6466924,114.0429602,,深圳市,440300,广东省,440000,"4,5",服务中心
北环大道店深圳,深圳市罗湖区北环大道1016号,22.571629,114.085745,null,深圳市,440300,广东省,440000,"4,5",服务中心
西环路店深圳,沙井街道沙头社区西环路2103号,22.73,113.80,,深圳市,440300,广东省,440000,"4,5",服务中心
虎丘宝龙广场店苏州,高新区滨河路337号苏州星韵宝龙广场1F零跑体验中心店,31.28,120.57,18861873735,苏州市,320500,江苏省,320000,"1,2",体验中心
东环汽车城店苏州,吴东路1368号,31.273432,120.65277,0512-67162583,苏州市,320500,江苏省,320000,"1,2",体验中心
张家港万达店苏州,杨舍镇人民东路20号,31.871066,120.575185,13776003781,苏州市,320500,江苏省,320000,"1,2",体验中心
相城吾悦广场店苏州,相城大道3188号,31.414017,120.631921,15062395689,苏州市,320500,江苏省,320000,"1,2",体验中心
常熟永旺梦乐城店苏州,高新技术产业开发区东南大道168号永旺梦乐城1层区域NO.121商铺,31.601405,120.778526,15250330187,苏州市,320500,江苏省,320000,"1,2",体验中心
昆山万达广场店苏州,苏州市昆山市周市镇翠微东路515号昆山青阳万达广场1F层1017号商铺,31.413408,120.991816,15851463576,苏州市,320500,江苏省,320000,"1,2",体验中心
吾悦广场店苏州,八坼街道524国道与友谊路交叉口(吴江和诚二楼),31.10,120.67,17601445579,苏州市,320500,江苏省,320000,"1,2",体验中心
华成吴江店苏州,苏州吴江区八坼街道友谊新路8号,31.089754,120.670454,null,苏州市,320500,江苏省,320000,"4,5,3,2,1",零跑中心
华成凯马店苏州,木渎镇中山东路156号,31.26,120.54,,苏州市,320500,江苏省,320000,"4,5",服务中心
华成东环店苏州,经济开发区郭巷街道吴东路1368号,31.272153,120.653074,,苏州市,320500,江苏省,320000,"3,4,5",服务中心
华成常熟店苏州,苏州市常熟市青墩塘路228号,31.636908,120.794250,,苏州市,320500,江苏省,320000,"4,5",服务中心
惠济万达店郑州,绿源路10号室内步行街(1F)层1051号,34.868426,113.635359,0371-63378666,郑州市,410100,河南省,410000,"1,2",体验中心
华祥国贸店郑州,龙湖镇双湖大道与龙湖大道交叉口西北角华祥国贸一层1-13、1-16号商铺,34.610957,113.680856,0371-87520777,郑州市,410100,河南省,410000,"1,2",体验中心
大中原汽车城综合服务中心店郑州,大中原汽车城C区17号,34.75366,113.488397,0371-60617181,郑州市,410100,河南省,410000,"1,2",体验中心
二七万达店郑州,河南省郑州市二七区大学路与航海路二七万达广场1F百货区-11018,34.718560,113.643027,0371-85519909,郑州市,410100,河南省,410000,"1,2",体验中心
新世界百货店郑州,河南省郑州市管城回族区紫荆山路57号新世界百货一楼L01F661号,34.75359,113.682704,0371-63212000,郑州市,410100,河南省,410000,"1,2",体验中心
中原锦艺城店郑州,郑州市中原区桐柏路与棉纺路交叉口锦艺城B馆,34.761876,113.611414,0371-53369916,郑州市,410100,河南省,410000,"1,2",体验中心
中牟店郑州,郑州市中牟县城东路北段路东,34.720364,114.035301,15378785195,郑州市,410100,河南省,410000,"1,2",体验中心
新郑郑韩路店郑州,河南省郑州市新郑市新建路办事处郑韩路南侧郑韩汽车城,34.41080 ,113.72775,,郑州市,410100,河南省,410000,"4,5",服务中心
中福汽车城店郑州,经北六路与中州大道交叉口东500米路南，中福汽车城内21号位置,34.73,113.74,null,郑州市,410100,河南省,410000,"4,5",服务中心
金梭路店郑州,郑州市高新区金梭路与盘槐里交叉口西南角,34.80,113.56,,郑州市,410100,河南省,410000,"4,5",服务中心
大中原汽车城店郑州,郑州市中原区中原西路与兰州北路交汇处北400米大中原国际汽车城,34.75,113.49,,郑州市,410100,河南省,410000,"3,4,5",服务中心
常平翔龙天地店东莞,常平镇常平大道88号157室,22.971755,114.003296,13926003630,东莞市,441900,广东省,440000,"1,2",体验中心
虎门万达广场店东莞,虎门万达广场1F1019,22.83,113.68,15015880132,东莞市,441900,广东省,440000,"1,2",体验中心
厚街万达广场店东莞,广东省东莞市厚街镇莞太路厚街段168号厚街万达广场1栋1单元2026室,22.943929,113.673922,0769-81696862,东莞市,441900,广东省,440000,"1,2",体验中心
碧桂园喜悦里店东莞,茶山镇茶兴路碧桂园喜悦里一楼1306、1307、1308室,23.069721862012713,113.8782783106412,4009669600,东莞市,441900,广东省,440000,"1,2",体验中心
东城万达店东莞,东城街道东纵路东城段208号东城万达广场1栋2096室,23.03548,113.780325,13288856663,东莞市,441900,广东省,440000,"1,2",体验中心
塘厦万科店东莞,塘厦镇迎宾大道25号金色城市花园8栋125室01,22.809621,114.079449,0769-26360688,东莞市,441900,广东省,440000,"1,2",体验中心
长安万科店东莞,长安镇长青南路1号7栋1021档,22.80088692414802,113.79998898937384,13554018806,东莞市,441900,广东省,440000,"1,2",体验中心
南城蜂汇广场店东莞,广东省东莞市南城街道宏一路1号蜂汇广场4栋156室,22.98245,113.721175,13825500747,东莞市,441900,广东省,440000,"1,2",体验中心
华南mall店东莞,万江街道万道路万江段24号,23.034368,113.728335,13794903829,东莞市,441900,广东省,440000,"1,2",体验中心
地标广场店东莞,虎门镇连升路44号地标广场2栋1125室,22.809023,113.688155,13360635857,东莞市,441900,广东省,440000,"1,2",体验中心
南城印象汇店东莞,东莞南城西平时代城中庭,23.02,113.76,13532731627,东莞市,441900,广东省,440000,"1,2",体验中心
常朗路店东莞,常平镇常朗路160号,22.956815,113.95737,,东莞市,441900,广东省,440000,"4,5",服务中心
寮步车城店东莞,广东省东莞市寮步镇国际汽车城虎蜘蛛汽车商城配件部,23.012688,113.853118,,东莞市,441900,广东省,440000,"4,5",服务中心
长泰路店东莞,东城街道旧锡边路2号1栋108室,22.995509,113.779416,,东莞市,441900,广东省,440000,"4,5",服务中心
大岭路店东莞,广东省东莞市凤岗镇大岭路16号,22.715054,114.162071,,东莞市,441900,广东省,440000,"4,5",服务中心
莞太路店东莞,南城街道莞太路白马段黄金一路盛嘉汽车城零跑汽车,22.98341,113.71177,0769-27228030,东莞市,441900,广东省,440000,"4,5,3,2,1",零跑中心
江南万达店南宁,南宁市江南区亭洪路 48-1号江南万达广场1F-1027号,22.789868,108.313547,19336003682,南宁市,450100,广西壮族自治区,450000,"1,2",体验中心
吾悦广场店南宁,金川路7号南宁吾悦广场9号楼10号楼2025-2-2号商铺,22.869189,108.369324,0771-2216918,南宁市,450100,广西壮族自治区,450000,"1,2",体验中心
万达茂店南宁,良堤路6号南宁万达茂商业广场室内步行街【F1】层【1075】号商铺,22.768757,108.431962,0771-2328458,南宁市,450100,广西壮族自治区,450000,"1,2",体验中心
电子产业孵化园店南宁,科园大道70号,22.871875,108.27877,19177191252,南宁市,450100,广西壮族自治区,450000,"1,2",体验中心
爱琴海店南宁,民族大道181号华丰城爱琴海城市广场室内F1层1015A号商铺,22.81376,108.420977,18376130583,南宁市,450100,广西壮族自治区,450000,"1,2",体验中心
金源国际汽车城店南宁,西乡塘区科园大道70号,22.866649,108.272463,,南宁市,450100,广西壮族自治区,450000,"4,5",服务中心
沙井大道店南宁,沙井大道60号沙井车汇城内,22.785524,108.248742,,南宁市,450100,广西壮族自治区,450000,"4,5",服务中心
印象城购物中心店惠州,河南岸金山大道13号惠州印象城购物中心L1-23b,23.03906,114.440023,0752-5802688,惠州市,441300,广东省,440000,"1,2",体验中心
惠城永旺店惠州,东湖西路东湖花园八号小区楼群地下一层和地上1-5层R-106铺位,23.086462,114.430011,0752-2200820,惠州市,441300,广东省,440000,"1,2",体验中心
金山汽车城店惠州,惠博大道170号（金山汽车城对面）,23.136996,114.402745,0752-2971997,惠州市,441300,广东省,440000,"1,3,4,5,2",零跑中心
大亚湾万达店惠州,惠州大亚湾西区龙海二路38号万达广场一楼1021铺,22.755579,114.479245,0752-8808559,惠州市,441300,广东省,440000,"1,2",体验中心
万科未来城店青岛,山东省青岛市市北区四流南路66号丙L1层L121,36.145381051066806,120.37121781957008,15153286911,青岛市,370200,山东省,370000,"1,2",体验中心
即墨海尚海店青岛,鹤山路444号海尚海室内1层1017B号,36.399046,120.448183,15092203521,青岛市,370200,山东省,370000,"1,2",体验中心
城阳万达店青岛,正阳中路117号青特万达广场1F1052号商铺,36.30670052423673,120.42260641495007,18153257770,青岛市,370200,山东省,370000,"1,2",体验中心
平度北方国贸店青岛,山东省青岛市平度市扬州路58号平度北方国贸购物中心,36.783755,119.95307,13963996169,青岛市,370200,山东省,370000,"1,2",体验中心
黄岛吾悦广场店青岛,滨海大道2888号新城吾悦广场C馆16号,35.928679,120.16465,0532-86821588,青岛市,370200,山东省,370000,"1,2",体验中心
延吉路万达店青岛,延吉路116号,36.088247,120.379057,17753270857,青岛市,370200,山东省,370000,"1,2",体验中心
峨眉山路店青岛,峨嵋山路790号,35.95,120.16,,青岛市,370200,山东省,370000,"4,5",服务中心
崂山区和谐店青岛,坪乡路54号,36.121371,120.384027,,青岛市,370200,山东省,370000,"4,5",服务中心
仙山东路店青岛,仙山东路33号,36.244291,120.41888,,青岛市,370200,山东省,370000,"4,5",服务中心
曲江龙湖星悦荟店西安,新开门北路888号曲江龙湖星悦荟1F-056商铺,34.21636410842649,108.99211810051214,17319942321,西安市,610100,陕西省,610000,"1,2",体验中心
雁塔立丰城店西安,陕西省西安市雁塔区丈八东路268号立丰城1F-1041,34.20,108.90,15129207774,西安市,610100,陕西省,610000,"1,2",体验中心
盛龙广场店西安,未央路80号盛龙广场一层1028-1号铺,34.299899,108.944685,029-89576968,西安市,610100,陕西省,610000,"1,2",体验中心
丰禾万达广场店西安,丰禾路251号鑫苑大都汇购物中心一层F1-13号展厅,34.281056,108.899645,029-81515155,西安市,610100,陕西省,610000,"1,2",体验中心
大唐西市店西安,劳动南路118号（西市城3格一层1106/1107）,34.245749,108.909371,029-89500666,西安市,610100,陕西省,610000,"1,2",体验中心
永宁门王府井店西安,西安市碑林区南关正街88号第1A-13商铺,34.247256,108.94592,029-85211929,西安市,610100,陕西省,610000,"1,2",体验中心
曲江金辉广场店西安,雁塔南路885号金辉环球广场一层51、71号,34.18164641685706,108.96497726440431,3747333089,西安市,610100,陕西省,610000,"1,2",体验中心
纺渭北路店西安,纺渭北路临街独栋商铺水韵商城,34.29,109.07,,西安市,610100,陕西省,610000,"4,5",服务中心
北辰大道店西安,北辰大道与浐灞二路十字路北,34.323228,108.996145,,西安市,610100,陕西省,610000,"4,5",服务中心
高新区和谐店西安,丈八三路26号（南三环南侧39所对面）,34.185828,108.875912,,西安市,610100,陕西省,610000,"4,5",服务中心
三桥店西安,陕西省西咸新区沣东新城三桥街道天台路B42号,34.27187,108.825133,,西安市,610100,陕西省,610000,"4,5",服务中心
富力广场店太原,胜利东街7号富力广场L1-16号,37.899133,112.594749,0351-5261008,太原市,140100,山西省,140000,"1,2",体验中心
铜锣湾店太原,五一路77号商场一层北门,37.868806,112.571842,17703418444,太原市,140100,山西省,140000,"1,2",体验中心
华宇百花谷店太原,学府街132号华宇百花谷商业中心L148-149号,37.80692,112.546738,0351-7020089,太原市,140100,山西省,140000,"1,2",体验中心
智源汽贸园店太原,山西省太原市小店区平阳南路68号智源汽贸园内,37.785212,112.551391,17635725000,太原市,140100,山西省,140000,"1,3,4,5,2",零跑中心
新汇众店太原,马练营路59号,37.76,112.61,,太原市,140100,山西省,140000,"4,5",服务中心
森园南街店太原,大同路森园南街6号,37.9,112.546014,,太原市,140100,山西省,140000,"4,5",服务中心
新天店泉州,泉州市鲤城区江南街道锦美社区笋江路55号新天城市广场商场一楼F111铺位,24.906319,118.558937,18650060812,泉州市,350500,福建省,350000,"1,2",体验中心
丰泽星悦荟店泉州,福建省泉州市丰泽区金崎路216号星悦荟广场127-128室,24.86,118.66,13305073223,泉州市,350500,福建省,350000,"1,2",体验中心
晋江吾悦广场店泉州,泉州市晋江市鞋都路与双龙路交叉口吾悦广场,24.832624,118.600857,15160770985,泉州市,350500,福建省,350000,"1,2",体验中心
晋江店泉州,罗山街道晋江汽车交易市场179-180号,24.784506,118.561905,17750502718,泉州市,350500,福建省,350000,"1,2",体验中心
城东万达店泉州,城东街道安吉路城东万达1楼中庭1A033店, 24.921882507853 ,118.66481630413,0595-22029900,泉州市,350500,福建省,350000,"1,2",体验中心
石狮德辉广场店泉州,湖滨街道八七路169号德辉广场2号门新能源区188号,24.73,118.65,15905051808,泉州市,350500,福建省,350000,"1,2",体验中心
科技路店泉州,华大街道科技路245号,24.932411,118.655755,,泉州市,350500,福建省,350000,"4,5",服务中心
太元南环路店泉州,南环路1305号,24.91,118.52,,泉州市,350500,福建省,350000,"4,5",服务中心
双龙路店泉州,福建省泉州市晋江市西园街道赖厝社区双龙路463号,24.819180,118.548167,,泉州市,350500,福建省,350000,"4,5",服务中心
鑫闽运店泉州,福建省泉州市晋江市罗山街道晋江汽车交易市场47-52号,24.784462,118.561974,,泉州市,350500,福建省,350000,"4,5",服务中心
西南一路店泉州,灵秀镇南洋路西侧鹏山工贸旁,24.728435,118.620379,,泉州市,350500,福建省,350000,"4,5",服务中心
五里桥店泉州,水头镇五里桥大道1596号,24.70,118.45,,泉州市,350500,福建省,350000,"4,5",服务中心
欢乐橙店黔西南州,欢乐橙1楼8-207-208-1,25.105045654668572,104.91737365722658,19185953666,黔西南,522300,贵州省,520000,"1,2",体验中心
桔山街道店黔西南州,桔山街道那坡立交圣地俊园小区荣盛加油站旁B栋3-4门面,25.096583,104.90909,0859-3233866,黔西南,522300,贵州省,520000,"1,4,5,2",体验中心
黔西南服务中心天合汽车城店黔西南州,桔山那坡立交桥荣盛加油站八财通汽车城,25.09627,104.908633,null,黔西南,522300,贵州省,520000,"5,4,1",服务中心
东阳第一百货店金华,第一百货1楼28号铺,29.268205,120.239297,17857630618,金华市,330700,浙江省,330000,"1,2",体验中心
金华之心店金华,李渔路和婺州街交叉口金华之心2幢115号,29.079037,119.640072,18858903335,金华市,330700,浙江省,330000,"1,2",体验中心
义乌万达店金华,稠江街道新科路万达广场1楼1096号,29.278173,120.045883,15381778988,金华市,330700,浙江省,330000,"1,2",体验中心
义乌佛堂宝龙店金华,佛堂镇佛堂大道宝龙广场一楼M1-L1-005号铺位,29.191002,120.019593,18105895053,金华市,330700,浙江省,330000,"1,2",体验中心
永康西城店金华,浙江省金华市永康市西城街道七里经堂大徐粮库第二幢南6-8间,28.911979,120.004157,0579-87158555,金华市,330700,浙江省,330000,"1,2",体验中心
三江印店金华,金华市宾虹东路299号一楼6铺位,29.091758,119.672628,18157909270,金华市,330700,浙江省,330000,"1,2",体验中心
义乌吾悦广场店金华,吾悦广场1039-1,29.304921,120.10626,0579-81575555,金华市,330700,浙江省,330000,"1,2",体验中心
永康宝龙店金华,永康市西城街道解放路188号B1层第GD-010、011、040、041号铺位,28.90018,120.02901,13967400268,金华市,330700,浙江省,330000,"1,2",体验中心
义乌望道路店金华,北苑街道望道路346号,29.333972763163853,120.0428106329231,null,金华市,330700,浙江省,330000,"4,5",服务中心
东阳兴平东路店金华,浙江省金华市东阳市吴宁街道卢宅社区兴平东路366号一楼,29.269675,120.257807,,金华市,330700,浙江省,330000,"5,4,3",服务中心
金义路店金华,金义快速路5555号,29.187910,119.821651,,金华市,330700,浙江省,330000,"4,5",服务中心
宾虹西路店金华,秋滨街道宾虹路二段876号3幢一楼,29.075512,119.605716,,金华市,330700,浙江省,330000,"5,4",服务中心
交付中心新能源小镇店金华,浙江省金华市婺城区金星南街新能源小镇零跑交付中心,29.03,119.61,18058909080,金华市,330700,浙江省,330000,3,合作交付点
永康西城店金华,西城街道七里经堂大徐粮库第二幢南6-8间,28.906718,120.01248,,金华市,330700,浙江省,330000,"4,5",服务中心
万达店邢台,开元北路万达广场1层1005店铺,37.084757,114.513811,0319-3350000,邢台市,130500,河北省,130000,"1,2",体验中心
龙岗汽车城店邢台,襄都区龙岗东大街汽车城南区23号零跑汽车,37.116991,114.556906,0319-8909889,邢台市,130500,河北省,130000,"1,3,2,4,5",零跑中心
南海大道店海口,南海大道228号,19.995539,110.276249,0898-68610720,海口市,460100,海南省,460000,"1,2",体验中心
上邦百汇城店海口,海口市金龙路11号上邦百汇城商铺-1号楼一层P1-12-15、16号铺位,20.020634,110.323104,18689546998,海口市,460100,海南省,460000,"1,2",体验中心
星茂城店海口,长流镇长滨六路4号,20.0494,110.180372,18889973034,海口市,460100,海南省,460000,"1,2",体验中心
海甸城店海口,海甸岛二东路2号,20.04893,110.343097,18589551646,海口市,460100,海南省,460000,"1,2",体验中心
琼山大道店海口,琼山大道192号,20.014105534256917,110.4021193219757,,海口市,460100,海南省,460000,"5,4",服务中心
南海大道店海口,南海大道238号(海南宝之瑞汽车贸易有限公司),19.99541,110.270578,,海口市,460100,海南省,460000,"4,5",服务中心
高新万达店桂林,桂林市七星区穿山东路43号桂林高新万达广场室内步行街1F,25.242135,110.32015,18007884523,桂林市,450300,广西壮族自治区,450000,"1,2",体验中心
八里七路店桂林,桂林市八里街惠信汽车市场1栋9-10号,25.352932,110.308994,0773-2637329,桂林市,450300,广西壮族自治区,450000,"1,3,4,5,2",零跑中心
吾悦泡泡龙店桂林,临桂镇世纪西路以南、平桂路以东、凤凰路以西吾悦广场1楼1005铺面,25.248368,110.166949,19126100170,桂林市,450300,广西壮族自治区,450000,"1,2",体验中心
真龙汽车城店桂林,广西壮族自治区桂林市临桂区机场路北侧真龙汽车博览园D区2号,25.266060,110.173947,0773-3885589,桂林市,450300,广西壮族自治区,450000,"4,5",服务中心
吾悦广场店临沂,临沂市河东区吾悦广场主进门5号门1楼50米左侧,35.078849,118.391573,13953952705,临沂市,371300,山东省,370000,"1,2",体验中心
滨河万达店临沂,兰山办事处蒙山大道与滨河路交汇西50米路南滨河万达广场1层1060号,35.112054,118.311427,19953961117,临沂市,371300,山东省,370000,"1,2",体验中心
泰盛广场店临沂,解放路88号泰盛广场二期1F层122-125号商铺,35.069055,118.329802,13954913337,临沂市,371300,山东省,370000,"1,2",体验中心
齐鲁吾悦广场店临沂,北城新区齐鲁吾悦广场东门（必胜客邻）1020-1商铺,34.972803,118.289681,17661115387,临沂市,371300,山东省,370000,"1,2",体验中心
沂河路店临沂,沂河路与沂州路交汇处向西300米路南,35.016106,118.354365,,临沂市,371300,山东省,370000,"4,5",服务中心
聚才路店临沂,临西五路与聚才路交汇西150米路北鲁南汽车城南门院内圆形水池西30米,35.098862,118.310701,,临沂市,371300,山东省,370000,"4,5",服务中心
滨湖爱琴海店合肥,滨湖区庐州大道与中山路交口爱琴海购物中心1025商铺 ,31.733492,117.301337,18297900856,合肥市,340100,安徽省,340000,"1,2",体验中心
北城万达店合肥,北城万达广场1F1071商铺,31.971071,117.263369,13721071716,合肥市,340100,安徽省,340000,"1,2",体验中心
东城店合肥,合肥市肥东经济开发区包公大道与镇西路交口西北角,31.89,117.43,0551-67895777,合肥市,340100,安徽省,340000,"3,4,5,1,2",零跑中心
蜀山天鹅湖万达店合肥,安徽省合肥市蜀山区南二环路3818号合肥天鹅湖万达广场1-8幢4-商178等42套房,31.82,117.22,0551-67895777,合肥市,340100,安徽省,340000,"1,2",体验中心
弘阳广场店合肥,长江西路478号弘阳广场4层05-2号商铺,31.852211,117.237524,0551-65103669,合肥市,340100,安徽省,340000,"1,2",体验中心
漫乐城店合肥,漫乐城购物广场1F119B,31.835108,117.286126,15156002073,合肥市,340100,安徽省,340000,"1,2",体验中心
庐州意库店合肥,合瓦路199号招商庐州意库项目6栋601,31.90,117.28,18326605812,合肥市,340100,安徽省,340000,"1,2",体验中心
正大广场店合肥,经开区正大广场1022K铺位,31.781349,117.228912,18056886938,合肥市,340100,安徽省,340000,"1,2",体验中心
肥西旭辉店合肥,经济开发区派河大道与翡翠路交口旭辉Cmall1F-039号,31.73759283260562,117.15956447838347,15955175699,合肥市,340100,安徽省,340000,"1,2",体验中心
绿地大融城店合肥,南二环与宿松路交口合肥绿地大融城一层101-1号商铺,31.813617780756488,117.26815951129545,15056009592,合肥市,340100,安徽省,340000,"1,2",体验中心
芙蓉路店合肥,合肥市包河区延安路669号,31.78,117.32,null,合肥市,340100,安徽省,340000,"4,5",服务中心
天智路店合肥,天智路53号,31.8503,117.21017,,合肥市,340100,安徽省,340000,"4,5",服务中心
云岩万达店贵阳,北京西路与数博大道交叉路口万达广场,26.593185,106.650263,0851-85901772,贵阳市,520100,贵州省,520000,"1,2",零跑中心
印象城店贵阳,茶园路街道北京西路与金阳南路交叉口印象城购物中心L117号,26.600759319437927,106.61860041613556,13398518678,贵阳市,520100,贵州省,520000,"1,2",体验中心
新添大道北店贵阳,新添大道北段2号,26.62,106.75,null,贵阳市,520100,贵州省,520000,"4,5",服务中心
白云大道店贵阳,白云大道224号,26.610914,106.660090,,贵阳市,520100,贵州省,520000,"4,5",服务中心
碧水路店吕梁,吕梁市离石区高速西口零跑汽车,37.504245,111.121896,18035881121,吕梁市,141100,山西省,140000,"1,3,2,4,5",零跑中心
大学城融创茂店重庆,西林大道84号融创茂1019铺,29.626087,106.359894,15826061663,重庆市,500100,重庆,500000,"1,2",体验中心
龙湖公园天街店重庆,重庆市渝北区仙桃街道秋成大道158龙湖重庆公园天街A馆B1-15号,29.72,106.57,18580001987,重庆市,500100,重庆,500000,"2,1",体验中心
悦荟购物中心店重庆,重庆市江北区红石路311号附2号UG层,29.57,106.50,,重庆市,500100,重庆,500000,"2,1",体验中心
U城天街店重庆,高新区虎溪街道大学城北路97号U城天街B馆南8馆-1F-28,29.61,106.29,15086972660,重庆市,500100,重庆,500000,"1,2",体验中心
礼嘉天街店重庆,"礼慈路14-15号龙湖礼嘉天街A 馆-1F-17a,A 馆-1F-18c",29.670281,106.492165,17783371121,重庆市,500100,重庆,500000,"1,2",体验中心
北城天街店重庆,北城天街A馆-2F-041\042,29.577503,106.533302,023-67603678,重庆市,500100,重庆,500000,"1,2",体验中心
金菱车世界店重庆,经开区白鹤路工业园区1号联合厂房附13号,29.510604,106.5616,023-62318777,重庆市,500100,重庆,500000,"1,2",体验中心
时代天街店重庆,长江二路174号时代天街B馆1楼05号店铺,29.538159,106.512214,023-63631883,重庆市,500100,重庆,500000,"1,2",体验中心
爱琴海店重庆,重庆市渝北区金开大道1003号附27号爱琴海购物公园,29.641895,106.548538,023-67038656,重庆市,500100,重庆,500000,"1,2",体验中心
爱融荟城店重庆,重庆爱融荟城LG-45铺位,29.60,106.50,13271818587,重庆市,500100,重庆,500000,"1,2",体验中心
沙坪坝万达广场店重庆,联芳街道经纬大道1108号重庆沙坪坝万达广场1A层1A050号商铺,29.543007,106.474446,19122737068,重庆市,500100,重庆,500000,"1,2",体验中心
龙湖西城天街店重庆,重庆市北部新区红锦大道588号,29.612208,106.523018,023-68190007,重庆市,500100,重庆,500000,"1,2",体验中心
大渡口万达店重庆,建桥大道108号1层商业（1036号）,29.472397,106.479279,19122836831,重庆市,500100,重庆,500000,"1,2",体验中心
金菱车世界店重庆,白鹤路工业园区1号联合厂房附13号,29.510604,106.5616,null,重庆市,500100,重庆,500000,"4,5",服务中心
交付中心金菱车世界店重庆,重庆市南岸区白鹤路工业园区1号联合厂房附13号,29.51,106.56,15826076162,重庆市,500100,重庆,500000,3,合作交付点
金安路店重庆,重庆市两江新区红锦大道588号,29.63,106.54,,重庆市,500100,重庆,500000,"4,5",服务中心
金渝大道店重庆,金渝大道28号,29.66689,106.51042,,重庆市,500100,重庆,500000,"4,5",服务中心
龙华大道店重庆,龙华大道18号,29.596866,106.508355,,重庆市,500100,重庆,500000,"4,5",服务中心
吾悦广场店淮安,生态文旅区凤里路1号淮安吾悦广场1045号商铺,33.553143,119.122865,18082324990,淮安市,320800,江苏省,320000,"1,2",体验中心
韩泰路店淮安,经济开发区韩泰南路5-2号,33.58,119.08,,淮安市,320800,江苏省,320000,"4,5",服务中心
西安北路店淮安,西安北路558号,33.631496,118.993581,null,淮安市,320800,江苏省,320000,"4,5",服务中心
天虹店岳阳,东茅岭路42号天虹广场一楼,29.371877,113.109635,15200271314,岳阳市,430600,湖南省,430000,"1,2",体验中心
安远洋店岳阳,南湖新区湘北大道湘北汽车城中央展厅零跑汽车,29.314663,113.146388,13327309008,岳阳市,430600,湖南省,430000,"1,3,2,4,5",零跑中心
通海北路店岳阳,湖南省岳阳市岳阳楼区经济技术开发区通海北路3号,29.38,113.17,,岳阳市,430600,湖南省,430000,"3,4,5",服务中心
万达广场店菏泽,菏泽市黄河东路1566号,35.258979,115.541146,0530-5117288,菏泽市,371700,山东省,370000,"1,2",体验中心
银座和谐广场店菏泽,菏泽市牡丹区人民路与长城路交叉口东北角银座和谐广场一楼北,35.27403,115.50087,0530-2072276,菏泽市,371700,山东省,370000,"1,2",体验中心
黄河东路店菏泽,山东省菏泽市黄河东路888号零跑汽车售后（万豪国际卡丁车院内）,35.262607,115.553338,,菏泽市,371700,山东省,370000,"5,4",服务中心
中汇汽车园店菏泽,高新区万福街道办事处昆明路2999号中汇国际汽车园内,35.28,115.42,,菏泽市,371700,山东省,370000,"4,5",服务中心
邹城东城购物广场店济宁,山东省济宁市邹城市程兰路东城购物广场百货大楼一层01号商铺,35.41,117.02,15092695095,济宁市,370800,山东省,370000,"2,1",体验中心
建设路万达店济宁,仙营街道建设路110号济宁建设路万达一层1015商铺,35.42613448032377,116.59669949521859,15853161539,济宁市,370800,山东省,370000,"1,2",体验中心
金宇汽配城店济宁,济宁市金宇汽配城中排7号,35.427404,116.543414,13275371930,济宁市,370800,山东省,370000,"1,2",体验中心
济州上城店济宁,观音阁街道五里营路9号济州上城,35.395534,116.620965,13220811085,济宁市,370800,山东省,370000,"1,2",体验中心
东岳汽车园店济宁,济宁市高新区柳行街道重汽东岳国际事业园,35.44609410429693,116.68798406336592,15264785705,济宁市,370800,山东省,370000,"1,2",零跑中心
金宇汽配城店济宁,济宁市金宇汽配城中排7号,35.427575,116.542495,,济宁市,370800,山东省,370000,"4,5",服务中心
瀛洲南路店连云港,连云港市海州区瀛洲南路108号,34.539162,119.238033,0518-85112888,连云港市,320700,江苏省,320000,"1,2",体验中心
瀛洲南路店连云港,江苏省连云港市海州区瀛洲南路108号,34.539166,119.238029,,连云港市,320700,江苏省,320000,"4,5",服务中心
仁和店达州,四川省达州市通川区巴渠东路318号1号楼负一层B04,31.225335,107.467098,15328931177,达州市,511700,四川省,510000,"1,2",体验中心
汽博店达州,四川省达州市通川区东岳镇有力镇九组（达州汽博中心）,31.318437,107.488934,,达州市,511700,四川省,510000,"4,5",零跑中心
开元广场店开封,金明大道开元广场1楼6号商铺,34.798021,114.30093,0371-23883666,开封市,410200,河南省,410000,"1,2",体验中心
星光天地店开封,开封市星光天地购物中心B馆一层B1-019A,34.807628,114.321692,400-0301-520,开封市,410200,河南省,410000,"1,2",体验中心
宋城路店开封,集英街和宋城路交叉口,34.786985,114.290095,,开封市,410200,河南省,410000,"4,5",体验中心
服务授权点复兴大道店开封,复兴大道西段圣桦城西200米路北,34.832084,114.321998,,开封市,410200,河南省,410000,"4,5",服务授权点
爱琴海店滨州,黄河十二路新立河东路爱琴海购物公园一层F1016号商铺,37.404979,117.992466,18606497521,滨州市,371600,山东省,370000,"1,2",体验中心
铭瑞店滨州,山东省滨州市滨城区渤海五路与滨澳大道交叉口东侧,37.452277,117.994514,13884858133,滨州市,371600,山东省,370000,"1,3,4,5,2",零跑中心
渤海二十四路店滨州,渤海二十四路501号,37.37,117.92,,滨州市,371600,山东省,370000,"4,5",服务中心
光明东道店廊坊,河北省廊坊市广阳区和平路8号零跑汽车,39.511874,116.719505,0316-2132564,廊坊市,131000,河北省,130000,"1,3,4,5,2",零跑中心
亿和SOHO广场店洛阳,洛阳市洛龙区牡丹大道张衡街交汇处SOHO国际广场A座一楼01号商铺C区,34.590751,112.401369,0379-67858585,洛阳市,410300,河南省,410000,"1,2",体验中心
新都汇店洛阳,解放路56号新都汇公园1层D2808,34.671115,112.434721,0379-69333555,洛阳市,410300,河南省,410000,"1,2",体验中心
中弘范特区店洛阳,河南省洛阳市涧西区武汉路街道范特区购物中心1F07A号,34.662598,112.365408,0379-65816777,洛阳市,410300,河南省,410000,"1,2",体验中心
正大国际广场店洛阳,洛阳市洛龙区开元大道225号正大国际广场,34.616258,112.460262,19937905809,洛阳市,410300,河南省,410000,"1,2",体验中心
名门微生活店洛阳,南昌路街道南昌路与九都路交叉口西南名门微生活一楼A102、 A103,34.647879,112.404642,0379-63620010,洛阳市,410300,河南省,410000,"1,2",体验中心
张衡街店洛阳,牡丹大道与张衡街交叉口互联网产业园B栋1楼101号,34.59,112.40,,洛阳市,410300,河南省,410000,"4,5",服务中心
德众汽车城店洛阳,汉宫路5号德众汽车城,34.69,112.42,,洛阳市,410300,河南省,410000,"5,4",服务中心
零跑中心三鑫店新乡,新乡市南环新能源汽车园内新乡零跑中心,35.260775,113.884087,0373-3359995,新乡市,410700,河南省,410000,"1,3,2,4,5",零跑中心
宝龙广场店新乡,金穗大道新乡宝龙广场B区一层M1-L1-019020072-2,35.294696,113.920292,0373-7736888,新乡市,410700,河南省,410000,"1,2",体验中心
新二街店新乡,河南省新乡市新二街与科隆大道交叉口北100米路西,35.27,113.92,,新乡市,410700,河南省,410000,"4,5",服务中心
亚飞汽贸店德州,山东省德州市开发区晶华路南首亚飞汽贸城院内零跑汽车,37.409915,116.377419,0534-2739777,德州市,371400,山东省,370000,"1,4,5,3,2",零跑中心
万达广场店德州,湖滨南大道669号德州万达广场1027B-1028铺位,37.43,116.31,18653496852,德州市,371400,山东省,370000,"1,2",体验中心
黄岩天佑城店台州,浙江省台州市黄岩区新前街道世纪大道378号台州天佑城L1-1026号,28.649889,121.251750,13355767777,台州市,331000,浙江省,330000,"1,2",体验中心
椒江万达店台州,白云街道台州万达广场室内步行街1031B商铺,28.635905,121.416959,13738327236,台州市,331000,浙江省,330000,"1,2",体验中心
二环南路店台州,东城街道二环南路22号,28.631236,121.265846,0576-84590000,台州市,331000,浙江省,330000,"1,3,4,5,2",零跑中心
玉环印象广场店台州,楚门镇环保中路255-51号,28.225463,121.288866,13305760232,台州市,331000,浙江省,330000,"1,2",体验中心
复地活力广场店台州,台州市路桥区路北街道腾达路527号1楼6-106-3铺,28.59033,121.37671,18958597958,台州市,331000,浙江省,330000,"1,2",体验中心
温岭宝龙广场店台州,浙江省台州市温岭市宝龙广场,28.403717,121.34313,13396912345,台州市,331000,浙江省,330000,"1,2",体验中心
椒江宝龙城店台州,葭芷街道黄海公路5号宝龙城M1-L1-033/067/068,28.674725,121.410285,0576-88789565,台州市,331000,浙江省,330000,"1,2",体验中心
临海朗成时代广场店台州,朗成时代广场一楼,28.854265,121.141819,13116565666,台州市,331000,浙江省,330000,"1,2",体验中心
洪西路店台州,洪家街道洪西路1号一期B幢8138,28.619829,121.416604,null,台州市,331000,浙江省,330000,"5,4",服务中心
迎宾大道店台州,西迎宾大道2号,28.557305,121.381266,,台州市,331000,浙江省,330000,"4,5",服务中心
玉环珠港大道店台州,台州玉环珠港大道店(中晨汽修),28.116072,121.249022,null,台州市,331000,浙江省,330000,"4,5",服务中心
吾悦广场店襄阳,高新技术开发区长虹北路77号吾悦广场一层1026室1-2商铺,32.093072,112.133502,18696221026,襄阳市,420600,湖北省,420000,"1,2",体验中心
钻石大道店襄阳,襄阳市襄州区钻石大道58号,32.08868,112.174727,13177222123,襄阳市,420600,湖北省,420000,"1,2,3,4,5",零跑中心
双金路店襄阳,春园西路街道109号,32.049804,112.098977,,襄阳市,420600,湖北省,420000,"4,5",服务中心
万达广场店唐山,唐山市路南区新华东道100号（万达广场）,39.624453,118.186511,0315-7772233,唐山市,130200,河北省,130000,"1,2",体验中心
友谊路店唐山,友谊路与翔云道交叉口南行100米 （路东）,39.643675,118.141933,,唐山市,130200,河北省,130000,"4,5",服务中心
零跑中心梨园转盘店许昌,许昌市文兴路梨园转盘西300米南侧,33.982456,113.860703,03747333089,许昌市,411000,河南省,410000,"1,3,4,5,2",零跑中心
万达广场店许昌,魏文路与许都路交叉口东南角,34.029955,113.858707,13837451788,许昌市,411000,河南省,410000,"1,2",体验中心
三水万达广场店佛山,云东海街道南丰大道13号之一佛山三水万达广场室内步行街1F1005商铺,23.178926,112.904899,15989083612,佛山市,440600,广东省,440000,"1,2",体验中心
海八路金融城店佛山,佛山市南海区桂城街道海八路东路32号地铁金融城（南海天河城）101铺,23.06595,113.158545,17322759524,佛山市,440600,广东省,440000,"1,2",体验中心
铂顿城店佛山,建新路111号铂顿城商场,23.026339114812476,113.11368304898863,13686500588,佛山市,440600,广东省,440000,"1,2",体验中心
映月湖环宇城店佛山,桂城街道石龙南路6号南宇广场L1层108-1单元,23.033497,113.187543,0757-86259995,佛山市,440600,广东省,440000,"1,2",体验中心
顺德万达店佛山,大良街道南霞新路9号美的万达广场1楼1055铺位,22.793527,113.282778,19924140251,佛山市,440600,广东省,440000,"1,2",体验中心
顺德爱琴海店佛山,佛山市顺德区乐从镇裕和路110号爱琴海购物公园1楼F1026,22.963686,113.130833,18820801876,佛山市,440600,广东省,440000,"1,2",体验中心
金铂天地店佛山,佛山市南海区大沥镇黄岐建设大道33号万益广场S2栋一层124号商铺,23.142878,113.199601,13660690378,佛山市,440600,广东省,440000,"1,2",体验中心
环球港店佛山,祖庙街道季华六路19号佛山环球港L1-07号铺,23.012877474554163,113.14219632198024,18928666763,佛山市,440600,广东省,440000,"1,2",体验中心
伟业兴隆店佛山,大沥镇振兴路13号伟业华誉豪庭13栋伟业兴隆广场首层1F01C商铺,23.105562,113.120583,13318363868,佛山市,440600,广东省,440000,"1,2",体验中心
罗村益田假日天地店佛山,沿江北路1号（狮山益田假日天地一楼）,23.059918,113.045204,18029293195,佛山市,440600,广东省,440000,"1,2",体验中心
海八路店佛山,海八路华南汽车城G12号,23.067652,113.12666,,佛山市,440600,广东省,440000,"4,5",服务中心
桂澜路店佛山,桂城街道桂澜路7号,23.002362,113.154081,null,佛山市,440600,广东省,440000,"4,5",服务中心
南丰大道店佛山,佛山市三水区云东海街道南丰大道81号商铺4,23.178557,112.905487,,佛山市,440600,广东省,440000,"5,4",服务中心
三水新动力广场店佛山,"西南街道西青大道新动力广场一层A31,A32号",23.172862,112.868182,13728503612,佛山市,440600,广东省,440000,"1,2",体验中心
顺德店佛山,广东省佛山市顺德区大良新桂中路愉景花园A52号地铺锐博汽车维修,22.828665,113.271323,null,佛山市,440600,广东省,440000,"4,5",服务中心
广珠路店佛山,广东省佛山市顺德区广珠公路与顺德立交桥交叉口南100米,22.859273,113.229326,null,佛山市,440600,广东省,440000,"3,4,5",服务中心
顺德店佛山,佛山市顺德区大良府又社区环市东路42号港安楼之2（3号铺）,22.828229,113.264911,18075521716,佛山市,440600,广东省,440000,"1,2",体验中心
桂丹西路店佛山,丹灶镇金兴路13号,23.06,112.96,,佛山市,440600,广东省,440000,"4,5",服务中心
香江国际汽车城店长沙,湖南省长沙市开福区香江国际汽车城C馆零跑汽车,28.294022,112.986305,,长沙市,430100,湖南省,430000,"3,4,5,2,1",零跑中心
方圆荟店长沙,芙蓉北路街道金泰路199号湘江世纪城富湾国际,28.251731,112.97929,15973002416,长沙市,430100,湖南省,430000,"1,2",体验中心
凯德壹中心店长沙,观沙岭街道茶子山东路112号凯德壹中心LG层LG-11号,28.242153,112.957512,18975007117,长沙市,430100,湖南省,430000,"1,2",体验中心
中南汽车店长沙,湖南省长沙市长沙县中南汽车世界H18栋,28.236782,113.0678,18075110820,长沙市,430100,湖南省,430000,"1,2,3,4,5",零跑中心
万达广场店长沙,湘江中路589号万达广场 1楼1058A,28.198709,112.971022,18974931630,长沙市,430100,湖南省,430000,"1,2",体验中心
环宇城店长沙,中意二路111号中海环宇城购物中心L1层L1-28-1-U单元,28.068282,112.986038,15084820287,长沙市,430100,湖南省,430000,"1,2",体验中心
龙湖天街店长沙,长沙市岳麓区东方红路步步高梅溪湖商业中心B区2001号,28.20,112.86,18569450234,长沙市,430100,湖南省,430000,"1,2",体验中心
东二环店长沙,浏阳河街道东二环原长沙市金宇物流园内,28.255894,113.017651,null,长沙市,430100,湖南省,430000,"4,5",服务中心
雀园路店长沙,雀园路汽车智慧新城2栋209,28.090571,112.995146,,长沙市,430100,湖南省,430000,"4,5",服务中心
麓谷汽车城店长沙,麓谷汽车世界东池路183号,28.21,112.86,,长沙市,430100,湖南省,430000,"4,5",服务中心
源枫店济源,文昌路与同心街交汇处源枫购物中心一楼（10号商铺）,35.078971,112.59368,15138802888,济源市,419001,河南省,410000,"1,2",体验中心
东环路店济源,东一环与北海大道交叉口路东（济源市亚飞艾普二手车交易市场北侧）,35.09,112.63,,济源市,419001,河南省,410000,"4,5",服务中心
海宁爱琴海店嘉兴,工人路85号爱琴海购物公园商场F113号铺,30.526928,120.692162,18357392765,嘉兴市,330400,浙江省,330000,"1,2",体验中心
南湖华府八佰伴店嘉兴,城南路1532号华府八佰伴1F-016C铺位,30.731242,120.735401,18105732177,嘉兴市,330400,浙江省,330000,"1,2",体验中心
海盐吾悦广场店嘉兴,浙江省嘉兴市海盐县武原街道枣园西路756号吾悦广场1幢101室新城吾悦广场编号1031商铺,30.53,120.93,15068216961,嘉兴市,330400,浙江省,330000,"2,1",体验中心
南湖星河coco city店嘉兴,浙江省嘉兴市南湖区长水路1810号嘉兴星河COCO City,30.72,120.76,15990371942,嘉兴市,330400,浙江省,330000,"1,2",体验中心
桐乡吾悦广场店嘉兴,梧桐街道振兴东路（东）439号吾悦广场5幢126-127号,30.627774,120.588256,15958107272,嘉兴市,330400,浙江省,330000,"1,2",体验中心
合乐城店嘉兴,东栅街道中环东路1468号合乐城A栋一层A115号,30.755293,120.78173,18157385738,嘉兴市,330400,浙江省,330000,"1,2",体验中心
中关村广场购物中心店嘉兴,高照街道中山西路1911号（中关村广场购物中心）F1-145-B、F1-146号,30.758146,120.688352,15868399000,嘉兴市,330400,浙江省,330000,"1,2",体验中心
吾悦广场店嘉兴,嘉兴平湖市当湖街道吾悦广场3幢180-182号,30.678719,121.026909,18969347100,嘉兴市,330400,浙江省,330000,"1,2",体验中心
嘉善银泰百货店嘉兴,嘉善大道399号L-152,30.824604,120.92832,0573-84685551,嘉兴市,330400,浙江省,330000,"1,2",体验中心
桐乡人民路店嘉兴,经济技术开发区人民路903号,30.613665,120.562806,,嘉兴市,330400,浙江省,330000,"5,4",服务中心
海宁大道店嘉兴,经济开发区海昌街道嘉海公路与由拳路交叉口国鸿路1-2号,30.545179,120.668776,,嘉兴市,330400,浙江省,330000,"4,5",服务中心
永高路店嘉兴,永高路56号5号楼,30.729073,120.721192,,嘉兴市,330400,浙江省,330000,"4,5",服务中心
东大营北店嘉兴,吴泾桥北堍674幢,30.7641,120.784522,,嘉兴市,330400,浙江省,330000,"4,5",服务中心
平湖高桥店嘉兴,S07与关桥路交叉口,30.67,121.05,null,嘉兴市,330400,浙江省,330000,"4,5",服务中心
东十里店宿州,安徽省宿州市埇桥区东十里汽车城东1.5公里路北,33.62392,117.062343,0557-2580111,宿州市,341300,安徽省,340000,"1,2,3,4,5",零跑中心
上虞万达广场店绍兴,百官街道高铁新城称山北路399号万达广场1F层1055-b号商铺,30.05306,120.843987,13699783211,绍兴市,330600,浙江省,330000,"1,2",体验中心
柯桥银泰店绍兴,银泰百货聚银中心1幢,30.086131,120.492581,15336776717,绍兴市,330600,浙江省,330000,"1,2",体验中心
诸暨万风新天地店绍兴,浣东街道苎萝东路399号万风新天地西楼4号楼1楼,29.701601,120.263101,18957557389,绍兴市,330600,浙江省,330000,"1,2",体验中心
开元广场店绍兴,剡湖街道鹿山路6号开元广场S1005,29.589762,120.826673,18058690061,绍兴市,330600,浙江省,330000,"1,2",体验中心
八佰伴购物中心店绍兴,八佰伴6025F1021铺位,30.083838,120.615256,0575-88008883,绍兴市,330600,浙江省,330000,"1,2",体验中心
柯桥梅中路店绍兴,柯北经济开发区梅中路280号金成工业园区,30.151838,120.522605,,绍兴市,330600,浙江省,330000,"4,5",服务中心
袍中北路店绍兴,浙江省绍兴市越城区斗门街道袍中北路300号,30.090121,120.616565,,绍兴市,330600,浙江省,330000,"4,5",服务中心
诸暨环城北路店绍兴,绍兴诸暨环城北路77号,29.730957,120.231796,,绍兴市,330600,浙江省,330000,"4,5",服务中心
聚英路店绍兴,曹娥街道聚英路237号,30.006736,120.860216,,绍兴市,330600,浙江省,330000,"4,5",服务中心
嵊州大道南店绍兴,三江街道嵊州大道南1785号,29.56,120.83,,绍兴市,330600,浙江省,330000,"4,5",服务中心
零跑中心宏源店周口,河南省周口市川汇区太清路宏源精品汽车城东门院内80米,33.649448,114.674845,0394-8728777,周口市,411600,河南省,410000,"1,2,3,4,5",零跑中心
开元万达店周口,开元大道开元万达商场1F1071铺位,33.58261,114.646223,0394-8850000,周口市,411600,河南省,410000,"1,2",体验中心
通州万达广场店南通,万达广场1070B-1071号,32.065123,121.091339,19555015111,南通市,320600,江苏省,320000,"1,2",体验中心
崇川大有境店南通,观畅路38号,32.004658,120.914984,13921665258,南通市,320600,江苏省,320000,"1,2",体验中心
钟秀西路店南通,江苏省南通市崇川区 钟秀西路9号百花大厦101室,32.027331,120.847455,0513-81015558,南通市,320600,江苏省,320000,"1,2",体验中心
海门大有境店南通,南通市海门区江海中路337号,31.879754,121.166196,15906298424,南通市,320600,江苏省,320000,"1,2",体验中心
永旺梦乐城店南通,开发区星湖大道1066号星湖城市城广场1幢永旺梦乐城1层129号,31.923368,120.962022,13814628332,南通市,320600,江苏省,320000,"1,2",体验中心
如东文峰大世界店南通,城中街道青园北路19号（文峰大世界F1-09铺）,32.31202762636831,121.18447527404119,13862828985,南通市,320600,江苏省,320000,"1,2",体验中心
如皋万达店南通,如城街道万寿路998号一层1029A,32.410817,120.575902,15062826199,南通市,320600,江苏省,320000,"1,2",体验中心
文峰广场店南通,虹桥路1号文峰广场1F-B1009,31.996519,120.883663,0513-83518999,南通市,320600,江苏省,320000,"1,2",体验中心
海安星湖001店南通,城东镇黄海大道（东）29号,32.535592,120.49598,18068173306,南通市,320600,江苏省,320000,"1,2",体验中心
星湖大道店南通,竹行街道星湖大道1012号,31.917021,120.984193,,南通市,320600,江苏省,320000,"4,5",服务中心
青年中路店南通,涌鑫东城广场2幢407室,32.00332,120.919542,,南通市,320600,江苏省,320000,"4,5",服务中心
百花路店南通,江苏省南通市崇川区百花苑65幢10号,32.049583,120.842436,,南通市,320600,江苏省,320000,"4,5",服务授权点
金桥西路店南通,金桥西路108号,32.053872,121.039443,,南通市,320600,江苏省,320000,"4,5",服务中心
中山西路店南通,中山西路359号,32.379539,120.529752,,南通市,320600,江苏省,320000,"4,5",服务中心
迎宾路店南通,经济开发区立发桥村20组,32.541855,120.504161,,南通市,320600,江苏省,320000,"4,5",体验中心
燎原路店柳州,柳州市燎原路41号（天和人家对面）,24.288504,109.440074,0772-8803770,柳州市,450200,广西壮族自治区,450000,"1,2",体验中心
城中万达店柳州,东环大道256号万达广场3栋1F-1023号铺,24.329631,109.441886,18977290389,柳州市,450200,广西壮族自治区,450000,"1,2",体验中心
汇轮路店柳州,广西省柳州市广西汽车贸易园内汇轮路东区3-2号,24.306145,109.367324,null,柳州市,450200,广西壮族自治区,450000,"4,5",服务中心
环球港店徐州,经济技术开发区徐海路8号环球港内第一层L1091-1093,34.26855,117.27301,15190689205,徐州市,320300,江苏省,320000,"1,2",体验中心
吾悦广场店徐州,徐州市贾汪区中旺路与206国道交汇处东北侧,34.418415,117.451414,18505298892,徐州市,320300,江苏省,320000,"1,2",体验中心
邳州中钰店徐州,东湖街道新苏中心一层F1026-2号,34.328396,117.979777,18952277668,徐州市,320300,江苏省,320000,"1,2",体验中心
复兴苏宁广场店徐州,复兴苏宁广场店A座 1层 122铺位,34.269306,117.202442,87896668,徐州市,320300,江苏省,320000,"1,2",体验中心
君盛广场店徐州,中山北路君盛广场1号楼一层1-103-105.1-103-106号商铺,34.295573,117.191945,13852100222,徐州市,320300,江苏省,320000,"1,2",体验中心
兴业路店徐州,兴业路5号,34.187345,117.252459,,徐州市,320300,江苏省,320000,"4,5",服务中心
徐海路店徐州,经济技术开发区徐海路66号欧蓓莎国际商城D2号楼1-101,34.280231,117.315652,,徐州市,320300,江苏省,320000,"4,5,3",服务中心
北仑银泰店宁波,新碶街道中河路399号1F1088号商铺,29.89529,121.831199,13085608233,宁波市,330200,浙江省,330000,"1,2",体验中心
高新区店宁波,杨木碶路555号,29.88,121.62,0574-55228668,宁波市,330200,浙江省,330000,"4,5,3,2,1",零跑中心
东部银泰城店宁波,浙江省宁波市鄞州区邱隘镇中山东路2266号101室,29.85,121.62,18969847370,宁波市,330200,浙江省,330000,"2,1",体验中心
奉化万达广场店宁波,岳林街道中山东路299号万达广场一层1026-1027号商铺,29.665524,121.423268,13884413222,宁波市,330200,浙江省,330000,"1,2",体验中心
宁海桃源店宁波,宁海气象北路398号桃源广场1F-09（西外街）,29.313951,121.435047,0574-65595557,宁波市,330200,浙江省,330000,"1,2",体验中心
余姚众安广场店宁波,凤山街道新建北路217号1号楼（1楼1002铺）,30.072816,121.160074,15058092396,宁波市,330200,浙江省,330000,"1,2",体验中心
鄞州宝龙广场店宁波,中河街道宝龙商业广场63-70号103室第L1层M1-L1-053/057-1商铺,29.835822,121.567898,18067162718,宁波市,330200,浙江省,330000,"1,2",体验中心
江北万象城店宁波,清河路265号万象城B1层B103,29.898851534111742,121.55531753102501,18888665377,宁波市,330200,浙江省,330000,"1,2",体验中心
慈溪吾悦广场店宁波,浒山街道新城大道南路1449号慈溪新城吾悦广场1042,30.143806,121.259418,18857470769,宁波市,330200,浙江省,330000,"1,2",体验中心
海曙印象城店宁波,中山西路3666号海曙印象城一楼L1-11商铺,29.896708,121.477813,13600625951,宁波市,330200,浙江省,330000,"1,2",体验中心
象山万达店宁波,丹西街道象山万达广场1077号商铺,29.456477,121.871427,18957896289,宁波市,330200,浙江省,330000,"1,2",体验中心
江北万达店宁波,浙江省宁波市江北区江北大道188号万达广场室内步行街1层1-02号,29.915898,121.530493,13757401609,宁波市,330200,浙江省,330000,"1,2",体验中心
海曙恒一广场店宁波,丽园南路1008号海曙恒一广场C入口1楼商场内零跑汽,29.851063,121.514296,0574-55338808,宁波市,330200,浙江省,330000,"1,2",体验中心
浒崇公路店宁波,古塘街道浒崇公路419号,30.19,121.25,,宁波市,330200,浙江省,330000,"4,5",服务中心
鄞县大道店宁波,鄞县大道西段777号,29.83529029,121.45432949,,宁波市,330200,浙江省,330000,"4,5",服务中心
江宁路店宁波,江口街道江宁路181号,29.715606,121.409082,,宁波市,330200,浙江省,330000,"4,5",服务中心
宁慈东路店宁波,宁慈东路456号,29.920613,121.55701,,宁波市,330200,浙江省,330000,"4,5",服务中心
慈海北路店宁波,骆驼街道慈海北路378号,29.9991,121.593651,,宁波市,330200,浙江省,330000,"4,5",服务中心
下应北路店宁波,潘火街道下应北路700号,29.814762,121.592709,,宁波市,330200,浙江省,330000,"4,5",服务中心
宁海金山路店宁波,金山五路8号,29.328137,121.424303,,宁波市,330200,浙江省,330000,"4,5",服务中心
大港一路店宁波,大港一路50号,29.91,121.82,,宁波市,330200,浙江省,330000,"4,5",服务中心
滨海大道店宁波,滨海大道11号,29.42,121.89,,宁波市,330200,浙江省,330000,"4,5",服务中心
光谷中商世界里店武汉,东湖新技术开发区关东街道珞喻路726号鲁巷商业服务中心F1S025号商铺,30.50595821804049,114.39583180937916,15971471771,武汉市,420100,湖北省,420000,"1,2",体验中心
摩尔城店武汉,龙阳大道特6号武汉摩尔城一期B座栋一层L1B-038-3号,30.559346,114.20751,18672772328,武汉市,420100,湖北省,420000,"1,2",体验中心
洪山万科广场店武汉,张家湾白沙洲大道187号洪山万科广场L1层1-15号,30.482966356048454,114.27539946388947,027-88156066,武汉市,420100,湖北省,420000,"1,2",体验中心
兴业路店武汉,武汉市江岸区兴业路136号华创出版产业园二期三号楼一层,30.629331,114.276992,18872211442,武汉市,420100,湖北省,420000,"1,2,3,4,5",零跑中心
金银湖万达店武汉,金山大道1239号,30.637673,114.177202,13986021502,武汉市,420100,湖北省,420000,"1,2",体验中心
华发中城商都店武汉,青年路299号华发中城商都街区一层B5-1号,30.603173,114.26138,13349839023,武汉市,420100,湖北省,420000,"1,2",体验中心
凯德西城店武汉,武汉市硚口区解放大道63号凯德西城1F-52,30.597579,114.193355,13971232929,武汉市,420100,湖北省,420000,"1,2",体验中心
奥山世纪广场店武汉,武汉市青山区和平大道809号奥山世纪广场1层,30.617162,114.360711,18186453796,武汉市,420100,湖北省,420000,"1,2",体验中心
光谷一路店武汉,东湖开发区光谷一路207号,30.485904,114.439674,,武汉市,420100,湖北省,420000,"4,5",服务中心
铁机店武汉,铁机村2号铁机汽车展销中心园区内东区05场地,30.591236,114.369146,027-86610166,武汉市,420100,湖北省,420000,"4,5,3,2,1",零跑中心
维佳体验城店武汉,丁字桥南路525号维佳体验城1-008号,30.503319,114.326487,18062403207 ,武汉市,420100,湖北省,420000,"1,2",体验中心
新吴万达广场店无锡,震泽路33号万达商业广场1楼1039铺位,31.484611,120.365624,0510-83090016,无锡市,320200,江苏省,320000,"1,2",体验中心
宜兴万达广场店无锡,宜兴市宜城街道东虹东路550号万达广场一楼1027商铺,31.363687,119.851174,0510-87058885,无锡市,320200,江苏省,320000,"1,2",体验中心
江阴八佰伴店无锡,澄江街道环城南路160号,31.898018,120.271697,0510-86800556,无锡市,320200,江苏省,320000,"1,2",体验中心
方圆荟店无锡,苏锡路2-7号一层C1009号,31.536575,120.29076,0510-88101115,无锡市,320200,江苏省,320000,"1,2",体验中心
悦尚奥特莱斯店无锡,惠山大道悦尚奥特莱斯2号门E馆,31.633685,120.310976,0510-83138511,无锡市,320200,江苏省,320000,"1,2",体验中心
新吴宝龙广场店无锡,无锡新吴区宝龙广场1171-1172,31.583817,120.298344,0510-88991519,无锡市,320200,江苏省,320000,"1,2",体验中心
梁溪万达广场店无锡,广南路388号无锡梁溪万达广场1F-1013A,31.590331773842113,120.33857345581056,0510-88990262,无锡市,320200,江苏省,320000,"1,2",体验中心
宜兴龙潭东路店无锡,宜城街道龙潭东路197号,31.35,119.83,,无锡市,320200,江苏省,320000,"4,5",服务中心
百乐广场店无锡,钱桥盛岸西路331号百乐商业广场1044-2,31.607139,120.240602,0510-88710016,无锡市,320200,江苏省,320000,"1,2",体验中心
盛岸西路店无锡,盛岸西路620号,31.615458,120.223552,null,无锡市,320200,江苏省,320000,"4,5",服务中心
运河东路店无锡,堰桥街道运河东路9号,31.646735,120.218206,,无锡市,320200,江苏省,320000,"5,4,3",服务中心
澄杨路店无锡,澄杨路200号,31.88,120.32,,无锡市,320200,江苏省,320000,"4,5",服务中心
经开富康城店昆明,自由贸易试验区经开区龙辉路206号富康城购物中心1F15,24.967833,102.792305,13888994477,昆明市,530100,云南省,530000,"1,2",体验中心
金地兰亭店昆明,人民西路899号金地兰亭广场项目一楼1021号商铺,25.046301,102.650168,0871-68181166,昆明市,530100,云南省,530000,"1,2",体验中心
瑞鼎城爱琴海店昆明,白云路168号瑞鼎城爱琴海购物公园B馆1层,25.053946,102.742626,13769117035,昆明市,530100,云南省,530000,"1,2",体验中心
金牛店昆明,云南省昆明市西山区滇池路口金牛小区一号门入口处展厅,25.012272,102.697426,0871-65301188,昆明市,530100,云南省,530000,"1,3,4,5,2",零跑中心
穿金路店昆明,穿金路524号院内厂房1号,25.07,102.75,,昆明市,530100,云南省,530000,"4,5",服务中心
马家堡凯德店北京,南三环西路16号1号楼01层16A号,39.86,116.37,010-87531560,北京市,110100,北京,110000,"1,2",体验中心
永旺梦乐城店北京,丰葆路88号院1号楼1层167,39.817953,116.29207,18513055918,北京市,110100,北京,110000,"1,2",体验中心
乐多港店北京,北京市昌平区城南街道南口路29号1F-1002号,40.229998,116.190284,010-83738928,北京市,110100,北京,110000,"1,2",体验中心
石景山首钢园店北京,石景山路68号五一剧场南路2号院1号楼六工汇 D1-1-09 号,39.915034,116.157102,18515438908,北京市,110100,北京,110000,"1,2",体验中心
翠微印象城店北京,翠微路12号一层23号商铺,39.912477,116.303401,15300090625,北京市,110100,北京,110000,"1,2",体验中心
瀛海环宇坊店北京,瀛海镇瀛永街瀛海环宇坊购物中心L123-1,39.75681810074667,116.43840551376343,13910056660,北京市,110100,北京,110000,"1,2",体验中心
顺义华联店北京,仁和镇新顺南大街8号院1幢一层F1-03C（华联商厦）,40.128395,116.652198,13552852412,北京市,110100,北京,110000,"1,2",体验中心
华联回龙观店北京,回龙观西大街华联商场一层F1-16,40.075958,116.319244,15002223301,北京市,110100,北京,110000,"1,2",体验中心
密云万象汇店北京,滨河路178号一层L162、LD122,40.356556,116.836121,18240179140,北京市,110100,北京,110000,"1,2",体验中心
天通苑店北京,立水桥北路天通苑华联购物中心1层F1-44B号,40.070404,116.414814,010-53652775,北京市,110100,北京,110000,"1,2",体验中心
丽泽天地店北京,丰台北路17号,39.867647,116.305343,17600306217,北京市,110100,北京,110000,"1,2",体验中心
远洋未来广场店北京,北四环东路73号远洋未来广场一层F1-20+21,39.990181,116.432355,18210583320,北京市,110100,北京,110000,"1,2",体验中心
天宫院凯德MALL店北京,华佗路2号凯德MALL·大兴01层37号,39.672324,116.318949,010-61258289,北京市,110100,北京,110000,"1,2",体验中心
延庆万达店北京,区延庆镇庆园街59号,40.474098,115.984571,15811355092,北京市,110100,北京,110000,"1,2",体验中心
朝阳姚家园万象汇店北京,姚家园万象汇L116B,39.940928,116.516241,18141908814,北京市,110100,北京,110000,"1,2",体验中心
双羊路店北京,双羊路15号,39.81,116.53,,北京市,110100,北京,110000,"4,5",服务中心
朝阳惠多港店北京,北京市朝阳区豆各庄黄厂西路1号A2栋一层1F-014号,39.85,116.56,,北京市,110100,北京,110000,"1,2",体验中心
通州远洋乐堤港店北京,通顺路远洋乐堤港西区零跑汽车101-A107,39.853551,116.410218,15652611163,北京市,110100,北京,110000,"1,2",体验中心
朝阳北路店北京,北京市朝阳区朝阳北路与黄杉木店路交汇处东北角B座(北京达世行同驰店),39.924513,116.530009,null,北京市,110100,北京,110000,"4,5,3",服务中心
朝阳毕淘买店北京,北京市朝阳区酒仙桥路12号 毕淘买生活广场1层059号,39.98195,116.49775,13581707217,北京市,110100,北京,110000,"1,2",体验中心
西长安中骏世界城店北京,北京市门头沟区新城东街北京西长安中骏世界城一层M108,39.91,116.12,,北京市,110100,北京,110000,"2,1",体验中心
清河店北京,清河街道安宁庄15号,40.042026,116.330455,,北京市,110100,北京,110000,"4,5",服务中心
京密路店北京,北京市密云区十里堡镇政府西行200米路北,40.36,116.80,,北京市,110100,北京,110000,"4,5",服务中心
滕州万达店枣庄,山东省枣庄市滕州市万达广场西南角龙泉路沿街外铺,35.109681,117.194404,18263266169,枣庄市,370400,山东省,370000,"1,2",体验中心
薛城万达店枣庄,永兴路126号万达广场T-01号,34.793673,117.267046,0632-5568789,枣庄市,370400,山东省,370000,"1,2",体验中心
双子星恒太城店枣庄,黄河路双子星恒太城1F-005,34.80,117.32,15318079155,枣庄市,370400,山东省,370000,"1,2",体验中心
燕山北路店枣庄,枣庄市薛城区燕山北路1168号（现代实验学校对面）,34.81,117.27,,枣庄市,370400,山东省,370000,"4,5",服务中心
富源国际汽车城店枣庄,北辛西路富源国际汽车城,35.107156,117.136686,,枣庄市,370400,山东省,370000,"4,5",服务中心
浦江万达店上海,永跃路360号浦江万达1楼1011,31.026891,121.512026,13764512227,上海市,310100,上海,310000,"1,2",体验中心
九新公路店上海,上海市松江区新桥镇九新公路3158、3188号,31.060,121.302,021-57653561,上海市,310100,上海,310000,"1,2,3,4,5",零跑中心
嘉定百联广场店上海,上海市嘉定区澄浏中路3172号百联广场1FG58-F01-1-112,31.39,121.28,15221323187,上海市,310100,上海,310000,"1,2",体验中心
宝山万达店上海, 上海市宝山区一二八纪念路936号1层1018A,31.32,121.45,13122179702,上海市,310100,上海,310000,"2,1",体验中心
江杨南路店上海,上海市宝山区江杨南路1461号3幢,31.33373,121.4675,021-66201741,上海市,310100,上海,310000,"2,1",体验中心
金桥国际店上海,张杨路3611弄金桥国际商业广场7座108室零跑汽车,31.26,121.58,17621070602,上海市,310100,上海,310000,"2,1",体验中心
凯德龙之梦店上海,沪闵路6088号01层36-37室,31.10875,121.37869,021-52275680,上海市,310100,上海,310000,"1,2",体验中心
虹桥龙湖天街店上海,申长路869号虹桥龙湖天街A座1层23室,31.191271,121.313343,18701990915,上海市,310100,上海,310000,"1,2",体验中心
周浦万达店上海,沪南路3449弄一层127-4号铺位,31.114507,121.569542,13758199972,上海市,310100,上海,310000,"1,2",体验中心
江桥万达店上海,金沙江西路1051号一层1105B商铺,31.239695,121.32375,18918599835,上海市,310100,上海,310000,"1,2",体验中心
松江万达店上海,广富林路658号松江万达广场,31.057546,121.242935,18621767113,上海市,310100,上海,310000,"1,2",体验中心
崇明万达店上海,翠竹路2325号1层B馆1019,31.626121807510604,121.4179102180733,18045532067,上海市,310100,上海,310000,"1,2",体验中心
森兰花园城店上海,启帆路517号,31.314382,121.591408,13817434100,上海市,310100,上海,310000,"1,2",体验中心
马桥万达店上海,上海市闵行区马桥万达一楼1057零跑体验中心,31.023398,121.372951,13524290805,上海市,310100,上海,310000,"1,2",体验中心
金汇龙湖天街店上海,南行港路388号金汇龙湖天街A座1层11室,30.968337,121.511931,18920698896,上海市,310100,上海,310000,"1,2",体验中心
临港万达店上海,鸿音路2555号万达广场,30.89165474269821,121.81462305186095,13402122575,上海市,310100,上海,310000,"1,2",体验中心
宝山森兰花园城店上海,上海市宝山区水产路2069号101部位1-35,31.37,121.45,17717572565,上海市,310100,上海,310000,"1,2",体验中心
嘉定宝龙城店上海,上海市嘉定区阿克苏路1099号宝龙广场一楼142室,31.345639,121.260559,18616730397,上海市,310100,上海,310000,"1,2",体验中心
中环百联购物广场店上海,真光路1288号一楼 0060铺,31.24,121.38,15900712448,上海市,310100,上海,310000,"1,2",体验中心
青浦万达广场店上海,淀山湖大道851号A区一楼1009零跑汽车,31.132787,121.08136,13311886277,上海市,310100,上海,310000,"1,2",体验中心
浦东漫乐城店上海,齐河路258号1层1-14,31.178945,121.503685,15505588833,上海市,310100,上海,310000,"1,2",体验中心
金山万达店上海,龙皓路1088号金山万达1017铺,30.75,121.34,13817414223,上海市,310100,上海,310000,"1,2",体验中心
施惠路店上海,施惠路688号,31.05,121.25,null,上海市,310100,上海,310000,"4,5",服务中心
都会路店上海,都会路2501号,31.07,121.41,,上海市,310100,上海,310000,"4,5",服务中心
顾戴路店上海,莘庄镇顾戴路3100弄68号,31.13,121.35,,上海市,310100,上海,310000,"4,5",服务中心
爱特路店上海,爱特路75号,31.232334,121.319314,,上海市,310100,上海,310000,"3,4,5",服务中心
桂平路店上海,桂平路309号,31.16,121.41,,上海市,310100,上海,310000,"4,5",服务中心
万荣路店上海,汶水路269号,31.291771,121.440851,,上海市,310100,上海,310000,"5,4",服务中心
园中路店上海,惠南镇园中路65号1幢106室,31.03629,121.726469,,上海市,310100,上海,310000,"4,5",服务中心
崮山路店上海,崮山路951号,31.24,121.56,,上海市,310100,上海,310000,"4,5",服务中心
江杨南路店上海,江杨南路1461号,31.333652,121.467382,,上海市,310100,上海,310000,"4,5",服务中心
金桥太茂店上海,金高路1882号金桥太茂商业广场F1 114B商铺,31.27,121.61,18502112199,上海市,310100,上海,310000,"2,1",体验中心
安吉万象店湖州,昌硕街道天荒坪中路489号昌硕广场5幢1-1016号,30.631319,119.690004,18268247353,湖州市,330500,浙江省,330000,"1,2",体验中心
田横路店湖州,田横路118号,30.882016,120.061443,13819286155,湖州市,330500,浙江省,330000,"4,5,3,2,1",零跑中心
南浔吾悦店湖州,南浔镇南林路518号1025号商铺,30.860611676223822,120.410135334627,13567281413,湖州市,330500,浙江省,330000,"1,2",体验中心
织里吾悦广场店湖州,织里镇吴兴大道5005号,30.858356,120.237401,13587288337,湖州市,330500,浙江省,330000,"1,2",体验中心
万达广场店湖州,大升路万达广场一楼,30.860919,120.142153,13819285009,湖州市,330500,浙江省,330000,"1,2",体验中心
长兴利时店湖州,太湖街道利时广场14幢101室-24号,31.020289,119.919286,18757210995,湖州市,330500,浙江省,330000,"1,2",体验中心
南浔大道店湖州,经济开发区南浔大道1677号1幢,30.85397,120.3929,,湖州市,330500,浙江省,330000,"4,5",服务中心
沭阳万达店宿迁,北京南路22号沭阳万达广场步行街1F层1061A、1061B号商铺,34.096402,118.763364,13337854357,宿迁市,321300,江苏省,320000,"1,2",体验中心
金鹰店宿迁,新青年路2号金鹰购物中心一楼F1188,33.955169,118.2914,0527-88885208,宿迁市,321300,江苏省,320000,"1,2",体验中心
崇文街店宿迁,苏州宿迁工业园区名车广场,33.93687,118.245524,0527-84568299,宿迁市,321300,江苏省,320000,"4,5",服务中心
颍泉万达店阜阳,阜阳市颍泉区颍泉万达商铺1007户,32.93256,115.817554,0558-2789000,阜阳市,341200,安徽省,340000,"1,2",体验中心
吾悦广场店阜阳,清河街道阜南路与淮河路交叉口阜阳新城吾悦广场1055号,32.87699,115.78999,13470765485,阜阳市,341200,安徽省,340000,"1,2",体验中心
世纪金源店阜阳,东盛路50号,32.91281598922565,115.88929644858379,15755843528,阜阳市,341200,安徽省,340000,"1,2",体验中心
汽贸物流园店阜阳,汽贸路一号（领上分公司）,32.84112,115.860121,,阜阳市,341200,安徽省,340000,"4,5",服务中心
港汇万达店商丘,商丘港汇万达零跑体验中心3号门1015铺,34.44771,115.646114,0370-2035255,商丘市,411400,河南省,410000,"1,2",体验中心
帝壹茂店商丘,帝和时代中心帝壹茂1层143号,34.420283,115.651417,0370-2788802,商丘市,411400,河南省,410000,"1,2",体验中心
锦绣路店商丘,锦绣路金桥路交叉口西100米,34.443604,115.59451,,商丘市,411400,河南省,410000,"4,5",服务中心
东台吾悦广场店盐城,惠阳路107号吾悦广场一楼1035、1036室（三号门入口）,32.83174345933573,120.32008528302099,19905152200,盐城市,320900,江苏省,320000,"1,2",体验中心
金鹰国际购物中心店盐城,解放南路288号,33.340359,120.163625,19851506268,盐城市,320900,江苏省,320000,"1,2",体验中心
盐都万达广场店盐城,盐城市盐都区万达广场,33.358878,120.127752,18068888618,盐城市,320900,江苏省,320000,"1,2",体验中心
大丰吾悦店盐城,常新北路吾悦广场一楼,33.211617841716496,120.45265484328866,19952892791,盐城市,320900,江苏省,320000,"1,2",体验中心
争进路店盐城,盐城市盐都区争进路8号,33.308025,120.11241,,盐城市,320900,江苏省,320000,"4,5",服务中心
希望大道店盐城,经济开发区希望大道3号9幢,33.37,120.22,,盐城市,320900,江苏省,320000,"4,5",服务中心
万达广场店聊城,新区街道柳园北路万达广场室内步行街1F层1028号,36.478452,115.987608,18006357777,聊城市,371500,山东省,370000,"1,2",体验中心
银座商城店聊城,柳园南路19号银座商城1楼零跑汽车,36.449981,115.987916,18954488588,聊城市,371500,山东省,370000,"1,2",体验中心
光岳北路店聊城,光岳路西双力路北,36.48,116.03,,聊城市,371500,山东省,370000,"4,5",服务中心
万嘉360店濮阳,濮阳市黄河路与长庆路交叉口北路东万嘉360广场1-70商铺,35.771625,115.065519,0393-5550777,濮阳市,410900,河南省,410000,"1,2",体验中心
万达店濮阳,绿城路与开州路交叉口西南角濮阳经开万达广场室内步行街1F层1020号,35.7906340408939,115.02515560823707,0393-5552666,濮阳市,410900,河南省,410000,"1,2",体验中心
绿城路店濮阳,绿城路与大庆路交叉口西100米路北  ,35.789969,115.079483,,濮阳市,410900,河南省,410000,"4,5,3",服务中心
寿光万达广场店潍坊,圣城街道学院路1111号，万达广场一楼1068铺位（零跑汽车）,36.87412603131086,118.77164840698244,18605367729,潍坊市,370700,山东省,370000,"1,2",体验中心
银座店潍坊,胜利东街4000号潍坊银座商城,36.71,119.16,05368886111,潍坊市,370700,山东省,370000,"1,2",体验中心
奎文万达广场店潍坊,潍坊市奎文区鸢飞路958号万达广场1号楼1F-09A商铺,36.718361,119.128644,13626363979,潍坊市,370700,山东省,370000,"1,2",体验中心
潍州路店潍坊,潍州路金宝乐园南两公里路西,36.639822,119.130495,,潍坊市,370700,山东省,370000,"4,5",服务中心
经开万达店赣州,经济技术开发区金岭大道18号万达广场室内步行街L1层1007号商铺,25.840704,114.90028,18179789100,赣州市,360700,江西省,360000,"1,2",体验中心
爱琴海店赣州,东山街道办事处爱琴海购物公园1层F1016号商铺,25.683871,114.764841,19914684553,赣州市,360700,江西省,360000,"1,2",体验中心
万盛购物中心店赣州,兴国路9号和富城百货L1-001C（EF栋-02）号铺,25.828618,114.939768,13766311621,赣州市,360700,江西省,360000,"1,2",体验中心
沙河大道店赣州,沙河镇沙河工业园25号,25.809,114.970199,,赣州市,360700,江西省,360000,"4,5",服务中心
工贸购物中心店临汾,解放西路28号,36.083565,111.522002,0357-2881118,临汾市,141000,山西省,140000,"1,2",体验中心
鼓楼南大街店临汾,尧庙镇鼓楼南大街1226号,36.051457,111.500848,,临汾市,141000,山西省,140000,"4,5",服务中心
白湖亭万达店福州,东升街道则徐大道398号白湖亭万达广场1F1076铺位,26.026431,119.3327,13599085142,福州市,350100,福建省,350000,"1,2",体验中心
苏宁广场店福州,福建省福州市台江区工业路233号苏宁广场B区1F125-126A铺面,26.06,119.29,18558879449,福州市,350100,福建省,350000,"1,2",体验中心
宜家荟聚广场店福州,福马路788号 宜家荟聚广场商场一层01A76号铺位,26.064541,119.366772,13950876085,福州市,350100,福建省,350000,"1,2",体验中心
世欧广场店福州,晋连路18号世欧广场北区一层53B铺位（喜茶正对面）,26.070231,119.32684,18650060812,福州市,350100,福建省,350000,"1,2",体验中心
秀山路店福州,新店镇秀山村100号,26.132894,119.319292,,福州市,350100,福建省,350000,"4,5",服务中心
万达广场店邯郸,滏河南大街101号万达广场1层1018号,36.59619,114.505644,0310-5501833,邯郸市,130400,河北省,130000,"1,2",体验中心
悦然广场店邯郸,南环路306号邯郸悦然广场一层C1005、C1017号商铺,36.565613,114.490907,0310-3169111,邯郸市,130400,河北省,130000,"1,2",体验中心
时代广场店邯郸,河北省邯郸市丛台区邯临路时代汽车广场,36.66,114.56,,邯郸市,130400,河北省,130000,"4,5",服务中心
天涯国际购物中心店三亚,解放一路001号三亚国际购物中心一层B008号商铺,18.236274,109.506628,0898-88238933,三亚市,460200,海南省,460000,"1,2",体验中心
万悦新天地店三亚,海南省三亚市吉阳区育秀路8号万悦新天地C栋一层CL1-22号铺 ,18.29,109.50,17330966678,三亚市,460200,海南省,460000,"2,1",体验中心
永晋汽车城店三亚,海南省三亚市吉阳区师部农场路永晋汽车城G30号,18.30,109.51,,三亚市,460200,海南省,460000,"4,5",服务中心
万达mall店兰州,南滨河西路1399号,36.097290,103.680240,16693165129,兰州市,620100,甘肃省,620000,"1,2",体验中心
五缘湾天虹店厦门,福建省厦门市湖里区金湖路516号五缘湾天虹1006号铺,24.509873,118.160382,15392031668,厦门市,350200,福建省,350000,"1,2",体验中心
集美世茂店厦门,侨英街道滨水中二里32~33号1033铺位,24.602113,118.076472,13666085034,厦门市,350200,福建省,350000,"1,2",体验中心
罗宾森广场店厦门,厦禾路899号罗宾森广场S1-27a、b,24.46896886757769,118.11273924693987,18650815166,厦门市,350200,福建省,350000,"1,2",体验中心
同安乐海店厦门,环城西路639号118铺位,24.720502,118.136009,19859261219,厦门市,350200,福建省,350000,"1,2",体验中心
孙坂北路店厦门,厦门市福建省厦门市集美区孙坂北路570-102号,24.63,118.04,,厦门市,350200,福建省,350000,"4,5",服务中心
创新路店厦门,火炬园创新路2号零跑服务中心,24.5153845,118.129085,,厦门市,350200,福建省,350000,"4,5",服务中心
万虹广场店济南,工业北路60号万虹广场1F107B、108B商铺,36.719135,117.132897,13345131417,济南市,370100,山东省,370000,"1,2",体验中心
丁豪广场店济南,高新区工业南路44号丁豪广场一楼116,36.680959,117.123176,18953199688,济南市,370100,山东省,370000,"1,2",体验中心
弘阳广场店济南,兴福寺路2660号弘阳广场1-1028号,36.673092,116.907905,0531-80992114,济南市,370100,山东省,370000,"1,2",体验中心
中海环宇城店济南,二环南路6638号中海国际社区A-1地块环宇城购物中心B1层B125,36.612773,116.981772,0531-82973699,济南市,370100,山东省,370000,"1,2",体验中心
世纪大道店济南,世纪大道13888号,36.685817,117.156181,,济南市,370100,山东省,370000,"4,5",服务中心
匡山汽车城店济南,二环西路3468号匡山汽车大世界市场东区51号,36.69058,116.935623,,济南市,370100,山东省,370000,"4,5",服务中心
润州万达店镇江,黄山西路19号,32.195186,119.436357,0511-88828866,镇江市,321100,江苏省,320000,"1,2",体验中心
溪云路店镇江,溪云路130号,32.18055,119.52963,null,镇江市,321100,江苏省,320000,"4,5",服务中心
万达广场店芜湖,万达广场一层1206-B,31.3377842411498,118.39957907649872,13155315212,芜湖市,340200,安徽省,340000,"1,2",体验中心
吾悦广场店芜湖,长江中路77号芜湖华强新城吾悦广场1038商铺,31.34042,118.364541,0553-3908889,芜湖市,340200,安徽省,340000,"1,2",体验中心
银湖路店芜湖,香格里拉花园98幢03门面房,31.375605,118.372951,,芜湖市,340200,安徽省,340000,"4,5",服务授权点
兴中广场店中山,石歧区凤鸣路1号（兴中广场B1座B1-1F-03b号）,22.522561,113.366907,18025658201,中山市,442000,广东省,440000,"1,2",体验中心
大信新都汇星汇店中山,南区永安一路18号大信新都汇星汇店1层L115号,22.483177,113.361124,0760-88898075,中山市,442000,广东省,440000,"1,2",体验中心
海港城店中山,小榄镇升平东路一号海港城151卡,22.672656,113.257148,18028397645,中山市,442000,广东省,440000,"1,2",体验中心
远洋大信店中山,东区博爱六路28号远洋广场3幢购物中心0102卡1FA11、1FA12号商铺,22.502159,113.419573,18689353510,中山市,442000,广东省,440000,"1,2",体验中心
百汇时代广场店中山,小榄镇北区社区北秀路43号百汇时代广场一区1层F038-1号商铺,22.685573360465522,113.22938919067384,19928083616,中山市,442000,广东省,440000,"1,2",体验中心
彩虹大道店中山,西区彩虹大道27号,22.546663,113.352265,,中山市,442000,广东省,440000,"4,5",服务中心
城南四路店中山,南区城南四路33号,22.46,113.35,,中山市,442000,广东省,440000,"3,4,5",服务中心
大商千盛广场店漯河,交通路与人民路交叉口千盛百货一层F1S22号商铺,33.570599,114.03952,0395-6190999,漯河市,411100,河南省,410000,"1,2",体验中心
太行山北路店漯河,太行山路与岷江路交叉口向北200米路东102号商铺,33.599033,113.996296,,漯河市,411100,河南省,410000,"4,5",服务授权点
德润广场店宁德,东侨经济开发区万安东路6号德润广场二期9号楼一层F118,26.642527,119.556369,18596663188,宁德市,350900,福建省,350000,"1,2",体验中心
江都万达店扬州,仙女镇新都北路118号扬州江都万达广场1F层1068号商铺,32.44558992162753,119.57746982574464,13358145552,扬州市,321000,江苏省,320000,"1,2",体验中心
新城吾悦广场店扬州,竹西路29号新城吾悦广场1F1028号店铺,32.418829,119.458783,18762793757,扬州市,321000,江苏省,320000,"1,2",体验中心
蜀冈万达店扬州,平山堂西路52号扬州蜀冈万达广场室内步行街1F层1027号,32.41340383837345,119.37507192183595,18952593344,扬州市,321000,江苏省,320000,"1,2",体验中心
荷叶路店扬州,荷叶东路108号,32.448267,119.390201,0514-87759900,扬州市,321000,江苏省,320000,"4,5",服务中心
泰兴万达店泰州,济川街道鼓楼北路333号万达广场1072商铺,32.186185,120.011243,17788331188,泰州市,321200,江苏省,320000,"1,2",体验中心
天虹购物中心店泰州,医药高新区药城大道797号天虹购物中心L1层L104铺,32.394048235858655,119.91019794303904,18936075555,泰州市,321200,江苏省,320000,"1,2",体验中心
万达广场店泰州,济川东路万达广场232号 1层 1037,32.471983,119.916518,13382596959,泰州市,321200,江苏省,320000,"1,2",体验中心
靖江泰和吾悦店泰州,工农路118号泰和吾悦广场A1-20号商铺,32.00552615945588,120.26228184878917,13305260626,泰州市,321200,江苏省,320000,"1,2",体验中心
渔婆北路店泰州,渔婆北路288号,32.04,120.27,,泰州市,321200,江苏省,320000,"4,5",服务中心
远大时代广场店焦作,光亚街道工业路1030号远大时代广场一楼B9-1,35.230246,113.249098,0391-3899978,焦作市,410800,河南省,410000,"1,2",体验中心
芝罘机场路店烟台,山东省烟台市芝罘区机场路208号,37.481747,121.363440,18615003311,烟台市,370600,山东省,370000,"1,2",体验中心
北京南路店烟台,烟台市开发区北京南路2-6号,37.55,121.21,,烟台市,370600,山东省,370000,"3,4,5,2,1",零跑中心
大悦城店烟台,北马路150号大悦城1F-17/18号商铺,37.54556,121.387204,18615003311,烟台市,370600,山东省,370000,"1,2",体验中心
荣盛国际购物广场店沧州,迎宾大道荣盛国际购物广场1层E1049铺,38.290614,116.817932,0317-2022012,沧州市,130900,河北省,130000,"1,2",体验中心
怀特商业广场店石家庄,槐安路105号怀特商业广场1F21-22号,38.022734,114.525996,0311-67695059,石家庄市,130100,河北省,130000,"1,2",体验中心
勒泰店石家庄,中山东路39号勒泰中心一层F1-11B,38.044918,114.5067,15832176773,石家庄市,130100,河北省,130000,"1,2",体验中心
保利广场店石家庄,体育北大街与丰收路交口保利广场购物1020商铺,38.072386,114.532479,15530106000,石家庄市,130100,河北省,130000,"1,2",体验中心
太行大街店石家庄,南村镇西南大街67号,38.06,114.64,,石家庄市,130100,河北省,130000,"4,5",服务中心
西湖万达店南昌,抚生路1888号零跑汽车（万达1058）,28.632946,115.858789,19379115980,南昌市,360100,江西省,360000,"1,2",体验中心
旭辉广场店南昌,南昌经济技术开发区双港西大街899号旭辉江来中心1号商业1F-010,28.743677,115.835676,15907909505,南昌市,360100,江西省,360000,"1,2",体验中心
新城吾悦广场店南昌,南昌高新技术产业开发区艾溪湖77号新城吾悦广场1楼1018号,28.71,115.97,15180195097,南昌市,360100,江西省,360000,"1,2",体验中心
青山湖万达店南昌,京东南大道1666号青山湖万达广场1067店铺,28.644127,115.96289,13767956783,南昌市,360100,江西省,360000,"1,2",体验中心
联发天虹店南昌,红谷滩区绿茵路129号联发广场商业楼部分-129室B1029,28.689335,115.864369,18612359696,南昌市,360100,江西省,360000,"1,2",体验中心
高新大道店南昌,民营科技园388号腾飞大厦一楼,28.69371,115.960205,,南昌市,360100,江西省,360000,"4,5",服务中心
开平天悦汇店江门,长沙街道开平大道1号16幢1212铺位,22.372757,112.665532,18929013127,江门市,440700,广东省,440000,"1,2",体验中心
新会万达店江门,会城启超大道2号万达广场室内步行街一层1033号商铺,22.504177,113.046776,18823080901,江门市,440700,广东省,440000,"1,2",体验中心
江海万达店江门,金星路217号江海万达广场一楼1035铺,22.559707,113.122497,18126657281,江门市,440700,广东省,440000,"1,2",体验中心
汇悦大融城店江门,白石大道166号109室,22.611795,113.082172,18029691631,江门市,440700,广东省,440000,"1,2",体验中心
宏达路店江门,广东省江门市蓬江区宏达路4号 ,22.615135,113.068903,,江门市,440700,广东省,440000,"4,5",服务中心
冈州大道东店江门,会城冈州大道东45号1座,22.53,113.06,,江门市,440700,广东省,440000,"4,5",服务中心
吾悦广场店蚌埠,蚌埠市迎宾大道1155号国际汽车城26栋-1号,32.863611,117.311303,19109659077,蚌埠市,340300,安徽省,340000,"1,2",体验中心
吾悦广场店滁州,敬梓东路678号滁州吾悦广场一层1040号店铺,32.237293,118.336991,0550-3011234,滁州市,341100,安徽省,340000,"1,2",体验中心
夷陵万达广场店宜昌,夷陵万达广场1层1073号,30.760314,111.351734,15334018168,宜昌市,420500,湖北省,420000,"1,2",体验中心
宜昌国际广场店宜昌,沿江大道158号1-05,30.678542,111.310129,13975833635,宜昌市,420500,湖北省,420000,"1,2",体验中心
桔乡路店宜昌,桔乡路491号,30.675547,111.377272,,宜昌市,420500,湖北省,420000,"4,5",服务中心
环球港店驻马店,置地大道与驿城大道交叉口9号,32.999779055521785,113.98930357537488,0396-2128777,驻马店市,411700,河南省,410000,"1,2",体验中心
大商新玛特店（过渡期至5月31日）驻马店,驻马店市驿城区开源大道金龙科技园南门东50米,33.01,114.07,0396-2930999,驻马店市,411700,河南省,410000,"1,2",体验中心
金龙科技园店驻马店,开源大道驻马店金龙科技园,33.01,114.07,,驻马店市,411700,河南省,410000,"4,5",服务中心
皇庭广场店湛江,开发区海滨大道北6号皇庭广场1楼1062 铺,21.250078,110.409856,18319536583,湛江市,440800,广东省,440000,"1,2",体验中心
华都汇店湛江,经济技术开发区绿华路48号华都汇8号商业裙楼第M层S041铺位,21.228356963036255,110.39855345073089,13422363322,湛江市,440800,广东省,440000,"1,2",体验中心
海田车城店湛江,东盛路7号湛江海田国际车城商贸市场第S21-2-1号商铺,21.30,110.38,,湛江市,440800,广东省,440000,"4,5",服务中心
新罗万达店龙岩,万达广场1F0506号,25.055922,117.020652,15080243336,龙岩市,350800,福建省,350000,"1,2",体验中心
吾悦广场店德阳,岷山路三段5号新城吾悦广场1015号,31.080682,104.382375,0838-2376222,德阳市,510600,四川省,510000,"1,2",体验中心
旌阳万达店德阳,旌阳万达广场1068BB-1068BC,31.16023,104.414329,19981000567,德阳市,510600,四川省,510000,"1,2",体验中心
泰山南路店德阳,泰山南路三段301号,31.07,104.39,,德阳市,510600,四川省,510000,"4,5",服务中心
谯城万达广场店亳州,人民路与汤王大道交汇处谯城万达广场室内步行街1F1053号商铺,33.873945,115.76478,0558-5119396,亳州市,341600,安徽省,340000,"1,2",体验中心
春雨汽车城店亳州,春雨汽车城16栋103号,33.825572,115.753104,,亳州市,341600,安徽省,340000,"4,5",服务中心
钟楼PARK店保定,韩庄乡北二环999号钟楼PARK3.1生活方式中心一层116号商铺,38.912483,115.512047,0312-5908899,保定市,130600,河北省,130000,"1,2",体验中心
新世纪车城店保定,长城南大街1485号（世纪车城院内）,38.830057,115.507826,,保定市,130600,河北省,130000,"4,5",服务中心
未来石万达店保定,七一路1999号万达广场一层,38.878708,115.557631,18812028666,保定市,130600,河北省,130000,"1,2",体验中心
吾悦广场店孝感,孝感市孝武大道178号贤良汽车城,30.86,113.98,15827263217,孝感市,420900,湖北省,420000,"1,2",体验中心
孝武大道店孝感,孝武大道178号,30.857335,113.984328,,孝感市,420900,湖北省,420000,"4,5",服务中心
万达广场店泸州,安宁街道万达广场1053号,28.911742,105.420453,0830-6669925,泸州市,510500,四川省,510000,"1,2",体验中心
步步高店泸州,龙马潭区蜀泸大道一段32号步步高广场1021号,28.894304,105.433952,13982766966,泸州市,510500,四川省,510000,"1,2",体验中心
银泰店丽水,宇雷路789号地上一层L1031室,28.440421522276736,119.92752990724932,18329023679,丽水市,331100,浙江省,330000,"1,2",体验中心
万地广场店丽水,花园路16号万地广场1F-X-042A,28.462255677266597,119.92458790974155,13588497513,丽水市,331100,浙江省,330000,"1,2",体验中心
绿谷大道店丽水,南明山街道南锦花苑9幢2-6号,28.416314,119.856153,,丽水市,331100,浙江省,330000,"4,5",服务授权点
天虹商场店漳州,南昌中路39号（悦华城市广场1-2幢商场L1楼层105-A铺位）,24.510269,117.671331,18020681988,漳州市,350600,福建省,350000,"1,2",体验中心
宝龙广场店漳州,梧桥中路宝龙广场30号D1039号,24.517250686887714,117.72402791575718,18965291002,漳州市,350600,福建省,350000,"1,2",体验中心
迎宾大道店漳州,福建省漳州市龙文区迎宾大道325号,24.49,117.74,0596-2134666,漳州市,350600,福建省,350000,"5,4",服务中心
正荣财富中心店莆田,镇海街道荔园东路1688号正荣财富中心购物广场一层B1013-1-2铺位,25.417338,119.029612,18650060812,莆田市,350300,福建省,350000,"1,2",体验中心
胜利南街店莆田,霞林街道胜利南街1686号,25.42,119.01,,莆田市,350300,福建省,350000,"4,5",服务中心
万达广场店南充,江东中路四段万达广场LG层G1029A号,30.77118,106.097555,0817-3577878,南充市,511300,四川省,510000,"1,2",体验中心
友阿国际广场店邵阳,宝庆东路1615号/B116号,27.232676,111.47891,18673991100,邵阳市,430500,湖南省,430000,"1,2",体验中心
万达广场店日照,山东路999号万达广场1层1026号商铺,35.43,119.55,15906330536,日照市,371100,山东省,370000,"1,2",体验中心
吾悦广场店淮北,吾悦广场1层1026铺,33.98483,116.834162,19156183666,淮北市,340600,安徽省,340000,"1,2",体验中心
酃湖万达店衡阳,衡州大道东50号的衡阳酃湖万达广场内1层1033号,26.885359,112.665967,13975125077,衡阳市,430400,湖南省,430000,"1,2",体验中心
银泰城店衡阳,衡阳市高新区华新大道43号银泰红城银泰城一至五期集中商业122室等（银泰红城购物中心一层1011商铺）,26.903610,112.556893,15874109189,衡阳市,430400,湖南省,430000,"2,1",体验中心
顺盈时代广场店清远,人民一路28号顺盈时代广场1－3号商业中心首层商铺1247号,23.675432,113.066105,18898822197,清远市,441800,广东省,440000,"1,2",体验中心
壹悦城店清远,东湖路汇利安广场壹号首层商铺113号（1F087-088/188）,23.709938,113.03595,0763-3582888,清远市,441800,广东省,440000,"1,2",体验中心
附城大道店清远,东城街道长埔下长村委会辖区内奔宝达二手车综合市场1号楼东座A01,23.73,113.04,,清远市,441800,广东省,440000,"4,5",服务中心
潞鼎万达店长治,潞州区太行西街66号潞鼎广场1012C,36.206411,113.109957,15513130186,长治市,140400,山西省,140000,"1,2",体验中心
君悦新天地店长治,长治市潞州区长兴中路619号,36.18548,113.115264,13994616822,长治市,140400,山西省,140000,"1,2",体验中心
体育路店长治,潞州区体育路职业汽修实训楼1栋,36.22,113.09,,长治市,140400,山西省,140000,"4,5",服务中心
万达广场店揭阳,榕东南厝村临江南路揭阳万达广场室内步行街【1F】层【1015】号商铺,23.561478,116.396985,19304047956,揭阳市,445200,广东省,440000,"1,2",体验中心
普宁星河COCO City店揭阳,市区广达北路与环市北路交界路段东南侧时代中心第一层L1S-076号（普宁星河COCO City第一层L1S-076,23.314725,116.161079,0663-2100180,揭阳市,445200,广东省,440000,"1,2",体验中心
环市北路店揭阳,广东省揭阳市榕城区东山环市北路与新河路交界处,23.57344,116.38957,,揭阳市,445200,广东省,440000,"4,5",服务中心
新城宝龙广场店舟山,定沈路699号宝龙广场M1-L1-037号商铺,29.992462,122.210483,13868211880,舟山市,330900,浙江省,330000,"1,2",体验中心
弘生大道店舟山,弘生大道158号,29.99,122.14,,舟山市,330900,浙江省,330000,"4,5",服务中心
碧城广场店韶关,西联镇芙蓉大道18号碧城广场·碧乐坊首层621-622商铺,24.773315,113.555838,0751-8280669,韶关市,440200,广东省,440000,"1,2",体验中心
南郊店韶关,广东省韶关市浈江区乐园镇广韶南路南郊六公里33号,24.75,113.59,,韶关市,440200,广东省,440000,"3,4,5",服务中心
金平万达店汕头,潮汕路61号万达广场室内步行街1F层1017号商铺,23.403504,116.677847,18023250118,汕头市,440500,广东省,440000,"1,2",体验中心
苏宁广场店汕头,苏宁广场首层106号商铺,23.361188,116.716766,13025242678,汕头市,440500,广东省,440000,"1,2",体验中心
汕汾路店汕头,汕头市春源北汕汾公路南侧（汕汾路与衡山路交界处）,23.39,116.72,,汕头市,440500,广东省,440000,"4,5",服务中心
万达店威海,竹岛街道仙姑顶路120号威海万达广场一层1009号商铺,37.449557,122.13874,18669358607,威海市,371000,山东省,370000,"1,2",体验中心
青岛南路店威海,经济技术开发区凤林街道青岛南路198-1号,37.39,122.16,,威海市,371000,山东省,370000,"4,5",服务中心
万达广场店泰安,泰山大街566号泰安泰山万达广场1F层PT-FW2-018店铺,36.181152,117.086885,18554006333,泰安市,370900,山东省,370000,"1,2",体验中心
吾悦广场店泰安,天烛峰路388号1楼1007铺位,36.210994500136714,117.17790606334454,15689672617,泰安市,370900,山东省,370000,"1,2",体验中心
印象汇店马鞍山,雨山东路863号印象汇01-13号,31.672237,118.516894,18955501010,马鞍山市,340500,安徽省,340000,"1,2",体验中心
梦之岛购物广场店百色,龙景西路16号梦之岛购物广场1层L116、L117号铺,23.877235,106.629199,0776-2811188,百色市,451000,广西壮族自治区,450000,"1,2",体验中心
印象汇店肇庆,端州四路8号印象汇广场01-15/72号铺位,23.05699363780429,112.47348715697223,18666773880,肇庆市,441200,广东省,440000,"1,2",体验中心
万达广场店肇庆,桃园路12号万达广场一层1060与1061铺位,23.142146,112.561579,15007581828,肇庆市,441200,广东省,440000,"1,2",体验中心
东岗西路店肇庆,114区肇庆大道南侧之四,23.100315,112.498997,,肇庆市,441200,广东省,440000,"4,5",服务中心
国贸店晋城,红星街与泽州路交汇处晋城国贸中心裙楼商业一层112商铺,35.49686,112.853078,15525512225,晋城市,140500,山西省,140000,"1,2",体验中心
城区中原东街店晋城,中原东街477号,35.477008,112.860330,null,晋城市,140500,山西省,140000,"4,5",服务中心
万达广场店宣城,飞彩办事处水阳江西大道28号万达广场1层1027号,30.935369,118.737846,0563-3311158,宣城市,341800,安徽省,340000,"1,2",体验中心
万达广场店六安,六安市金安区312国道与先生店路交叉口向东50米,31.761236,116.606409,17756462510,六安市,341500,安徽省,340000,"1,2",体验中心
吾悦广场店六安,梅山南路与南苑路交汇处南侧吾悦广场1层1015铺　,31.719711,116.525208,13856495559,六安市,341500,安徽省,340000,"1,2",体验中心
万达广场店晋中,新建北路556号万达广场1层1037号商铺,37.717781,112.73821,15803513822,晋中市,140700,山西省,140000,"1,2",体验中心
鸣李汽贸园店晋中,晋中经济开发区汇通路鸣李汽贸园2号,37.73,112.69,null,晋中市,140700,山西省,140000,"4,5",服务中心
团城山万达店黄石,广州路30号,30.186085,115.002707,18696286868,黄石市,420200,湖北省,420000,"1,2",体验中心
黄金山店黄石,黄石市黄金山工业新区大棋路以南,30.135554,115.067533,,黄石市,420200,湖北省,420000,"3,4,5",服务中心
吾悦广场店钦州,金海湾东大街吾悦广场3号门1056号商铺,21.939042,108.632017,18877752789,钦州市,450700,广西壮族自治区,450000,"1,2",体验中心
扬帆北大道店钦州,扬帆北大道与东泉街交汇处,21.959225,108.65099,null,钦州市,450700,广西壮族自治区,450000,"4,5",服务中心
万达广场店株洲,株洲经济开发区学林街道万达商业广场室内步行街【1F】层【1006A】号商铺,27.88189784134179,113.15949104285222,15874118868,株洲市,430200,湖南省,430000,"1,2",体验中心
美的时代广场店株洲,嵩山路街道珠江北路1036号株洲美的时代广场1F层116-3、116-4号商铺,27.831297,113.08435,18573313239,株洲市,430200,湖南省,430000,"1,2",体验中心
长安路店株洲,湖南省株洲市天元区长安路西（株洲汽车博览园）,27.82,113.06,,株洲市,430200,湖南省,430000,"4,5",服务中心
红都百货店南阳,南阳市卧龙区信臣路涵洞桥西200米路北,33.036356,112.551094,19339551211,南阳市,411300,河南省,410000,"1,2",体验中心
信臣路南阳,高新区信臣路与北京路交叉口向东800米路南,33.03,112.51,null,南阳市,411300,河南省,410000,"4,5",服务中心
新世纪广场店云浮,环市中路的新世纪广场负一楼A12号商铺,22.930324,112.022774,18023369703,云浮市,445300,广东省,440000,"1,2",体验中心
星力城店遵义,万里路星力城A馆,27.677179,106.922943,15120385040,遵义市,520300,贵州省,520000,"1,2",体验中心
吾悦广场店遵义, 共青大道与嵩山路交叉口往东100米 ,27.650746,106.88701,15120385040,遵义市,520300,贵州省,520000,"1,2",体验中心
遵南大道店遵义,龙坑街道遵南大道黔北国际汽车博览中心26号,27.61,106.88,,遵义市,520300,贵州省,520000,"4,5",服务中心
吾悦广场店铜陵,翠湖二路东段88号吾悦广场1015-1016商铺,30.951494,117.86789,0562-5857008,铜陵市,340700,安徽省,340000,"1,2",体验中心
万达广场店玉林,玉东新区旺瑶片区金玉路与胜利路交叉口东北侧【玉林玉 州万达广场】购物中心【1F】层【1010】号商铺,22.634388,110.17994,18677090133,玉林市,450900,广西壮族自治区,450000,"1,2",体验中心
万达广场店淄博,房镇镇中润大道17号万达广场一层1021号,36.838523,118.011596,18853305185,淄博市,370300,山东省,370000,"1,2",体验中心
吾悦店淄博,淄博经济开发区傅家镇世纪路与昌国路交汇处东南角吾悦广场1层1006号商铺内北侧,36.784702,118.024641,19953364003,淄博市,370300,山东省,370000,"1,2",体验中心
山泉路店淄博,山泉路150号,36.75,118.03,0533-8173002,淄博市,370300,山东省,370000,"4,5",服务中心
东城文旅广场店平顶山,诚朴路与矿工路交汇处东城文旅广场一层1-077铺,33.739514,113.332827,0375-3898008,平顶山市,410400,河南省,410000,"1,2",体验中心
神马大道店平顶山,神马大道136号,33.718429,113.313712,,平顶山市,410400,河南省,410000,"4,5",服务中心
宝龙广场店珠海,高新区科技创新海岸南围港湾大道北宝龙广场第一层M1-L1-081的商铺,22.381257,113.551213,0756-8588808,珠海市,440400,广东省,440000,"1,2",体验中心
中海环宇城店珠海,前河北路98号中海环宇城一层169A商铺,22.234297446987185,113.52438493690757,18998191219,珠海市,440400,广东省,440000,"1,2",体验中心
上冲汽车城店珠海,华威路115号厂房1-110,22.30,113.49,null,珠海市,440400,广东省,440000,"4,5,3",服务中心
高旺万达店梧州,高旺路1号梧州高旺万达广场商业广场室内步行街1F层1035号商铺,23.45852,111.28932,13649449278,梧州市,450400,广西壮族自治区,450000,"1,2",体验中心
三龙大道店梧州,广西壮族自治区梧州市长洲区红岭18号路东侧,23.48,111.23,,梧州市,450400,广西壮族自治区,450000,"4,5",服务中心
万达店南平,大红袍路2号万达广场1B008AB铺位,27.366957,118.090312,18039756508,南平市,350700,福建省,350000,"1,2",体验中心
新世界百货店绵阳,临园路东段72号新世界百货1F-052,31.463912,104.742593,19950838856,绵阳市,510700,四川省,510000,"1,2",体验中心
友阿国际广场店郴州,北湖街道国庆北路17号郴州友阿国际广场C1层主力店ZA1003号,25.804099,113.026797,19973508508,郴州市,431000,湖南省,430000,"1,2",体验中心
万华汽车城店郴州,湖南省郴州市北湖区安和街道万华汽车城,25.74,112.95,,郴州市,431000,湖南省,430000,"3,4,5",服务中心
文昌大道店安阳,文昌大道与梅东路交叉口东南角,36.073945,114.302993,,安阳市,410500,河南省,410000,"4,5",服务中心
吾悦广场店宝鸡,高新开发区渭滨大道388号新城吾悦广场1层1039号,34.340103,107.234814,0917-3613288,宝鸡市,610300,陕西省,610000,"1,2",体验中心
丽彩万达店咸阳,玉泉东路10号咸阳丽彩万达广场1层1036-1037铺,34.34,108.69,029-38166678,咸阳市,610400,陕西省,610000,"1,2",体验中心
人民西路店咸阳,人民西路4号正大现代建材家居博览中心院内一层商铺,34.335075,108.69497,,咸阳市,610400,陕西省,610000,"4,5",服务中心
润达国际广场店宜春,凤凰街道黄坡路鼓楼1号润达国际广场1层LI-052/053号商铺,27.794984,114.377119,0795-3135799,宜春市,360900,江西省,360000,"1,2",体验中心
电白万达店茂名,迎宾大道168号电白万达广场一层1021,21.529622,111.012112,18306682357,茂名市,440900,广东省,440000,"1,2",体验中心
东汇城店茂名,油城十路与茂名大道交汇处,21.664428189759608,110.95049689581171,15766721498,茂名市,440900,广东省,440000,"1,2",体验中心
美轮车城店茂名,广东省茂名市茂南区高水路南香路段南香村委会旁美轮车城内,21.65,110.95,,茂名市,440900,广东省,440000,"5,4",服务中心
万达广场店宜宾,叙州区航天路南段7号万达广场1B015B,28.749898,104.64852,0831-8235663,宜宾市,511500,四川省,510000,"1,2",体验中心
万豪城市广场店娄底,万豪城市广场负一楼,27.727145,112.006274,18607380302,娄底市,431300,湖南省,430000,"1,2",体验中心
宏大广场店湘西,武陵山大道与丰达路交汇处宏大广场二期3号裙楼一层1-1021A,39.886766,116.336914,18974355369,湘西,433100,湖南省,430000,"1,2",体验中心
新城吾悦广场店安庆,菱湖南路与龙眠山南路交汇处新城吾悦广场2号门1楼1021店铺 ,30.513282,117.076254,0556-5801188,安庆市,340800,安徽省,340000,"1,2",体验中心
中兴大道店安庆,安徽省安庆市经济技术开发区中兴大道160号,30.55,117.06,0556-5870787,安庆市,340800,安徽省,340000,"1,2,3",零跑中心
东城万达店东营,开发区莒州路29号东城万达广场一楼1010铺位,37.45,118.69,15066007677,东营市,370500,山东省,370000,"1,2",体验中心
竹叶山车城店荆州,荆州大道188号竹叶山车世界C9-106,30.38346,112.203639,,荆州市,421000,湖北省,420000,"4,5",服务中心
万达广场店贵港,贵城街道仙衣路与布山大道交汇处东北角万达商业广场1037号铺,23.116106,109.583862,15878187079,贵港市,450800,广西壮族自治区,450000,"1,2",体验中心
新达诚时代广场店阳江,新江北路1199号新达城时代广场1F-14B、14C铺位号的商铺,21.872205,111.953559,13926381111,阳江市,441700,广东省,440000,"1,2",体验中心
和瑞欢乐城店常德,武陵大道998号和瑞欢乐城二期1层A1005号商铺,29.066282,111.697148,15367793709,常德市,430700,湖南省,430000,"1,2",体验中心
汽车城店（销售）常德,常德市武陵区龙港路汽车配件物流中心2号楼129-132号门面,29.07,111.68,18508430265,常德市,430700,湖南省,430000,"2,1",体验中心
汽车城店（交付服务）常德,常德市武陵区龙港路与三星路交汇处常德零跑中心汽车城店（售后服务）,29.068413,111.675882,0736-7770390,常德市,430700,湖南省,430000,"3,4,5",服务中心
苏宁广场店运城,河东街58号的运城苏宁广场第一层第124号商铺,35.026642,111.003593,17603595775,运城市,140800,山西省,140000,"1,2",体验中心
吾悦广场店运城,人民北路与大禹街交汇处吾悦广场一楼1052号商铺,35.07155978532114,110.98158480405704,0359-8528555,运城市,140800,山西省,140000,"1,2",体验中心
太平洋店黄山,黎阳镇西海路太平洋购物中心,29.71,118.29,13705593152,黄山市,341000,安徽省,340000,"1,2",体验中心
吾悦广场店渭南,仓程路中段吾悦广场一层1028铺,34.51,109.47,0913-2030521,渭南市,610500,陕西省,610000,"1,2",体验中心
胜利大街店渭南,胜利大街与金水路十字西南角车雷四组商住新区3号楼临街一层商铺,34.51,109.49,,渭南市,610500,陕西省,610000,"4,5",服务中心
北一路万达店沈阳,北一中路1号,41.81,123.38,15940485694,沈阳市,210100,辽宁省,210000,"1,2",体验中心
K11店沈阳,博览路2甲1号,41.75030402817675,123.43798805629604,15840419136,沈阳市,210100,辽宁省,210000,"1,2",体验中心
全运万达店沈阳,智慧三街33-25号 沈阳全运万达广场 1F　1060A-1060B ,41.6848032666841,123.46053283649184,18604197008,沈阳市,210100,辽宁省,210000,"1,2",体验中心
客都汇广场店梅州,梅水路客都汇商业文化广场一层1003号铺,24.30,116.13,18038580558,梅州市,441400,广东省,440000,"1,2",体验中心
嘉乐城店防城港,防钦路1号嘉乐城2栋B010/B011,21.77,108.36,0770-3296668,防城港市,450600,广西壮族自治区,450000,"1,2",体验中心
万达店抚州,抚州高新技术产业开发区万达广场室内步行街1F层A-A号,27.96,116.35,13607949526,抚州市,361000,江西省,360000,"1,2",体验中心
万达广场店曲靖,经开区三江大道与学府路交叉路口曲靖万达广场1A036,25.519748,103.7568,18108743325,曲靖市,530300,云南省,530000,"1,2",体验中心
万道星光店曲靖,益街道水寨社区水石路以东文达车世界2栋206-207,25.45,103.81,13577497459,曲靖市,530300,云南省,530000,"1,2",体验中心
东方广场店衢州,信安东路32号106室,28.975325132134365,118.95698791215277,18329085333,衢州市,330800,浙江省,330000,"1,2",体验中心
万达广场店衢州,花园街道荷花中路555幢1层80号,28.926667029696823,118.87910842895508,13735098082,衢州市,330800,浙江省,330000,"1,2",体验中心
财富中心店潮州,潮汕公路与新风路交界处财富中心 B 幢一层 B103-105号,23.649690449591517,116.61090373992921,15216970789,潮州市,445100,广东省,440000,"1,2",体验中心
COCO City店汕尾,凤山街道香洲路777号显达CoCoCity一楼L1-052号商铺,22.776090536033095,115.37803173065187,13502321234,汕尾市,441500,广东省,440000,"1,2",体验中心
西昌万达广场店凉山,航天大道五段63号万达广场1F层1009号商铺,27.87439350854175,102.28376626968384,18702850400,凉山,513400,四川省,510000,"1,2",体验中心
吾悦广场店延安,新城吾悦广场1层1020-2/1021-2号,36.6409939544349,109.49826938389404,18091132278,延安市,610600,陕西省,610000,"1,2",体验中心
坚基购物中心店河源,东城西片区越王大道西边永康大道南边商业购物中心305第一层第L127号铺,23.77,114.72,18682220829,河源市,441600,广东省,440000,"1,2",体验中心
万达广场店河源,东源万达广场室内步行街1F层1038号商铺,23.779202401394674,114.73871217937669,18902332931,河源市,441600,广东省,440000,"1,2",体验中心
河源大道店河源,源城区河源大道北高塘中石油站对面零跑服务中心,23.792353,114.709475,,河源市,441600,广东省,440000,"4,5",服务中心
万达广场店九江,德化路666号万达商场1A层19号店铺,29.693543800966857,116.01533113016862,18770266658,九江市,360400,江西省,360000,"1,2",体验中心
天润广场店信阳,民权路天润广场1楼,32.12664013627777,114.08044079322967,15839716356,信阳市,411500,河南省,410000,"1,2",体验中心
华生广场店贺州,灵峰南路8号远东国际城文化苑一楼A-03、A-04 ,24.409408262645663,111.55420176973126,13878316068,贺州市,451100,广西壮族自治区,450000,"1,2",体验中心
银海万达店北海,广东南路225北海银海万达广场室内步行街【1F】层【1013】号商铺,21.432722389063034,109.14372281814892,19977926001,北海市,450500,广西壮族自治区,450000,"1,2",体验中心
九原万达店包头,万达广场一层1015铺,40.606224,109.952515,18686165776,包头市,150200,内蒙古自治区,150000,"1,2",体验中心
水游城店盘锦,创新街道商东社区石油大街北水游城S-L131-2,41.12437452961952,122.07480630833957,18504276066,盘锦市,211100,辽宁省,210000,"1,2",体验中心
工业街店盘锦,盘锦市兴隆台区泰山路西工业大街路北16号,41.127922,122.062961,0427-2667555,盘锦市,211100,辽宁省,210000,"3,4,5",服务中心
吾悦广场店鄂州,临空经济区新庙镇吾悦广场1001店铺,30.392935203633748,114.92290601191733,13094188555,鄂州市,420700,湖北省,420000,"1,2",体验中心
中商广场店张家界,永定街道中商广场一层035/036号,29.124335690262825,110.48457299737534,15274400791,张家界市,430800,湖南省,430000,"1,2",体验中心
万达广场店巴中,经开区秦巴大道万达广场1层1023-1025A,31.84364846423935,106.78116520434078,18181399986,巴中市,511900,四川省,510000,"1,2",体验中心
鸿诚广场店大理,下关街道泰安路112号鸿诚广场万德福购物中心1层102商铺,25.588886375759277,100.22688708103952,13808768456,大理,532900,云南省,530000,"1,2",体验中心
吾悦广场店大同,云冈区清泉街道吾悦广场一层1066号,40.03385586376811,113.22249126568089,19903523999,大同市,140200,山西省,140000,"1,2",体验中心
吾悦广场店银川,北京路857号吾悦广场一层1070号,38.46950864258308,106.3193645705194,0951-8686555,银川市,640100,宁夏回族自治区,640000,"1,2",体验中心
万达店广元,"广元利州万达广场 万达广场1F31,1F32号商铺",32.42439845198787,105.87780182144515,18981222208,广元市,510800,四川省,510000,"1,2",体验中心
新业中心店乐山,青衣路55号新业中心1楼1B-28号,29.55884070369378,103.72479938987551,0833-2275501,乐山市,511100,四川省,510000,"1,2",体验中心
城南天虹店吉安,吉安南大道18号铜锣湾广场中心一层1-03号商铺,27.084620512331803,114.96300111047539,18107067102,吉安市,360800,江西省,360000,"1,2",体验中心
欧亚卖场店长春,开运街5178号一层渤海大街L1-022-2号,43.84,125.25,13314317217,长春市,220100,吉林省,220000,"1,2",体验中心
超达大路店长春,长春市朝阳区超达大路与育民路交汇处育民路101号 ,43.791059,125.194844,,长春市,220100,吉林省,220000,"3,4,5",服务中心
黎阳路店鹤壁,河南省鹤壁市淇滨区黎阳东路,35.76,114.32,,鹤壁市,410600,河南省,410000,"4,5",服务中心
鹤城飞达假日广场店怀化,城中街道鹤洲北路与迎丰西路交汇处飞达假日广场C011,27.55,109.97,15399811212,怀化市,431200,湖南省,430000,"2,1",体验中心
松山万达广场店赤峰,内蒙古自治区赤峰市松山区万达广场一楼1073,42.252997,118.916076,15904761765,赤峰市,150400,内蒙古自治区,150000,"2,1",体验中心
和美汽贸城店赤峰,和美汽贸城东北角（和美灯饰城对面）,41.927364,118.701938,,赤峰市,150400,内蒙古自治区,150000,"3,4,5",服务中心
国贸邻里荟店榆林,陕西省榆林市榆阳区银沙路金阳小区国贸邻里荟1028\1029铺位,38.31,109.76,0912-3522779,榆林市,610800,陕西省,610000,"2,1",体验中心
中惠万达广场西宁,青海省西宁市德令哈路南中惠万达广场一层1069号,36.60,101.80,18797117881,西宁市,630100,青海省,630000,"1,2",体验中心
东胜万达店鄂尔多斯,鄂尔多斯市东胜区万达广场B1-1019,39.82,109.98,13310311732,鄂尔多斯市,150600,内蒙古自治区,150000,"1,2",体验中心
